[{'id': 'TVhYQXJlbmFzIDE5VFV4QlEwTlBVM1JoWlhOd', 'name': 'Arenas 19', 'city': {'id': 'TUxBQ0NPU3RhZXNt', 'name': 'Costa Esmeralda'}, 'state': {'id': 'TUxBUENPU2ExMmFkMw', 'name': 'Bs.As. Costa Atlántica'}, 'country': {'id': 'AR', 'name': 'Argentina'}, 'geo_information': {'location': {'latitude': -37.0058481, 'longitude': -56.7958564}}, 'subneighborhoods': []}, {'id': 'TVhYQm9zcXVlVFV4QlEwTlBVM1JoWlhOdA', 'name': 'Bosque', 'city': {'id': 'TUxBQ0NPU3RhZXNt', 'name': 'Costa Esmeralda'}, 'state': {'id': 'TUxBUENPU2ExMmFkMw', 'name': 'Bs.As. Costa Atlántica'}, 'country': {'id': 'AR', 'name': 'Argentina'}, 'geo_information': {'location': {'latitude': -37.0024844, 'longitude': -56.8049249}}, 'subneighborhoods': []}, {'id': 'TVhYRGVwb3J0aXZvIDFUVXhCUTBOUFUzUmhaW', 'name': 'Deportivo 1', 'city': {'id': 'TUxBQ0NPU3RhZXNt', 'name': 'Costa Esmeralda'}, 'state': {'id': 'TUxBUENPU2ExMmFkMw', 'name': 'Bs.As. Costa Atlántica'}, 'country': {'id': 'AR', 'name': 'Argentina'}, 'geo_information': {'location': {'latitude': -37.0096776, 'longitude': -56.802687}}, 'subneighborhoods': []}, {'id': 'TVhYRGVwb3J0aXZvIDJUVXhCUTBOUFUzUmhaW', 'name': 'Deportivo 2', 'city': {'id': 'TUxBQ0NPU3RhZXNt', 'name': 'Costa Esmeralda'}, 'state': {'id': 'TUxBUENPU2ExMmFkMw', 'name': 'Bs.As. Costa Atlántica'}, 'country': {'id': 'AR', 'name': 'Argentina'}, 'geo_information': {'location': {'latitude': -37.0106714, 'longitude': -56.7952197}}, 'subneighborhoods': []}, {'id': 'TVhYRWN1ZXN0cmVUVXhCUTBOUFUzUmhaWE50', 'name': 'Ecuestre', 'city': {'id': 'TUxBQ0NPU3RhZXNt', 'name': 'Costa Esmeralda'}, 'state': {'id': 'TUxBUENPU2ExMmFkMw', 'name': 'Bs.As. Costa Atlántica'}, 'country': {'id': 'AR', 'name': 'Argentina'}, 'geo_information': {'location': {'latitude': -37.0226341, 'longitude': -56.819143}}, 'subneighborhoods': []}, {'id': 'TVhYR29sZiAxVFV4QlEwTlBVM1JoWlhOdA', 'name': 'Golf 1', 'city': {'id': 'TUxBQ0NPU3RhZXNt', 'name': 'Costa Esmeralda'}, 'state': {'id': 'TUxBUENPU2ExMmFkMw', 'name': 'Bs.As. Costa Atlántica'}, 'country': {'id': 'AR', 'name': 'Argentina'}, 'geo_information': {'location': {'latitude': -37.0153646, 'longitude': -56.8064169}}, 'subneighborhoods': []}, {'id': 'TVhYR29sZiAyVFV4QlEwTlBVM1JoWlhOdA', 'name': 'Golf 2', 'city': {'id': 'TUxBQ0NPU3RhZXNt', 'name': 'Costa Esmeralda'}, 'state': {'id': 'TUxBUENPU2ExMmFkMw', 'name': 'Bs.As. Costa Atlántica'}, 'country': {'id': 'AR', 'name': 'Argentina'}, 'geo_information': {'location': {'latitude': -37.0224467, 'longitude': -56.81693}}, 'subneighborhoods': []}, {'id': 'TVhYTWFyaXRpbW8gSVRVeEJRME5QVTNSaFpYT', 'name': 'Maritimo I', 'city': {'id': 'TUxBQ0NPU3RhZXNt', 'name': 'Costa Esmeralda'}, 'state': {'id': 'TUxBUENPU2ExMmFkMw', 'name': 'Bs.As. Costa Atlántica'}, 'country': {'id': 'AR', 'name': 'Argentina'}, 'geo_information': {'location': {'latitude': -37.008528, 'longitude': -56.7768267}}, 'subneighborhoods': []}, {'id': 'TVhYTWFyaXRpbW8gSUlUVXhCUTBOUFUzUmhaW', 'name': 'Maritimo II', 'city': {'id': 'TUxBQ0NPU3RhZXNt', 'name': 'Costa Esmeralda'}, 'state': {'id': 'TUxBUENPU2ExMmFkMw', 'name': 'Bs.As. Costa Atlántica'}, 'country': {'id': 'AR', 'name': 'Argentina'}, 'geo_information': {'location': {'latitude': -37.018397, 'longitude': -56.7915997}}, 'subneighborhoods': []}, {'id': 'TVhYUmVzaWRlbmNpYWwgMVRVeEJRME5QVTNSa', 'name': 'Residencial 1', 'city': {'id': 'TUxBQ0NPU3RhZXNt', 'name': 'Costa Esmeralda'}, 'state': {'id': 'TUxBUENPU2ExMmFkMw', 'name': 'Bs.As. Costa Atlántica'}, 'country': {'id': 'AR', 'name': 'Argentina'}, 'geo_information': {'location': {'latitude': -37.0199797, 'longitude': -56.8045704}}, 'subneighborhoods': []}, {'id': 'TVhYUmVzaWRlbmNpYWwgMlRVeEJRME5QVTNSa', 'name': 'Residencial 2', 'city': {'id': 'TUxBQ0NPU3RhZXNt', 'name': 'Costa Esmeralda'}, 'state': {'id': 'TUxBUENPU2ExMmFkMw', 'name': 'Bs.As. Costa Atlántica'}, 'country': {'id': 'AR', 'name': 'Argentina'}, 'geo_information': {'location': {'latitude': -37.0147706, 'longitude': -56.8028538}}, 'subneighborhoods': []}, {'id': 'TVhYU2VuZGVyb3MgMVRVeEJRME5QVTNSaFpYT', 'name': 'Senderos 1', 'city': {'id': 'TUxBQ0NPU3RhZXNt', 'name': 'Costa Esmeralda'}, 'state': {'id': 'TUxBUENPU2ExMmFkMw', 'name': 'Bs.As. Costa Atlántica'}, 'country': {'id': 'AR', 'name': 'Argentina'}, 'geo_information': {'location': {'latitude': -37.0106714, 'longitude': -56.7952197}}, 'subneighborhoods': []}, {'id': 'TVhYU2VuZGVyb3MgMlRVeEJRME5QVTNSaFpYT', 'name': 'Senderos 2', 'city': {'id': 'TUxBQ0NPU3RhZXNt', 'name': 'Costa Esmeralda'}, 'state': {'id': 'TUxBUENPU2ExMmFkMw', 'name': 'Bs.As. Costa Atlántica'}, 'country': {'id': 'AR', 'name': 'Argentina'}, 'geo_information': {'location': {'latitude': -37.0106714, 'longitude': -56.7952197}}, 'subneighborhoods': []}, {'id': 'TVhYU2VuZGVyb3MgM1RVeEJRME5QVTNSaFpYT', 'name': 'Senderos 3', 'city': {'id': 'TUxBQ0NPU3RhZXNt', 'name': 'Costa Esmeralda'}, 'state': {'id': 'TUxBUENPU2ExMmFkMw', 'name': 'Bs.As. Costa Atlántica'}, 'country': {'id': 'AR', 'name': 'Argentina'}, 'geo_information': {'location': {'latitude': -37.00007, 'longitude': -56.7986897}}, 'subneighborhoods': []}, {'id': 'TVhYU2VuZGVyb3MgNFRVeEJRME5QVTNSaFpYT', 'name': 'Senderos 4', 'city': {'id': 'TUxBQ0NPU3RhZXNt', 'name': 'Costa Esmeralda'}, 'state': {'id': 'TUxBUENPU2ExMmFkMw', 'name': 'Bs.As. Costa Atlántica'}, 'country': {'id': 'AR', 'name': 'Argentina'}, 'geo_information': {'location': {'latitude': -37.0070716, 'longitude': -56.8036856}}, 'subneighborhoods': []}, {'id': 'TVhYRWwgUGluYXJUVXhCUTB4QldqUTRZVFF6', 'name': 'El Pinar', 'city': {'id': 'TUxBQ0xBWjQ4YTQz', 'name': 'La Lucila del Mar'}, 'state': {'id': 'TUxBUENPU2ExMmFkMw', 'name': 'Bs.As. Costa Atlántica'}, 'country': {'id': 'AR', 'name': 'Argentina'}, 'geo_information': {'location': {'latitude': -36.6501368, 'longitude': -56.6886595}}, 'subneighborhoods': []}, {'id': 'TUxBQlBFUjczOTYxOA', 'name': 'Bosques de Peralta Ramos', 'city': {'id': 'TUxBQ01BUjU2MGMw', 'name': 'Mar del Plata'}, 'state': {'id': 'TUxBUENPU2ExMmFkMw', 'name': 'Bs.As. Costa Atlántica'}, 'country': {'id': 'AR', 'name': 'Argentina'}, 'geo_information': {'location': {'latitude': -38.084213, 'longitude': -57.567432}}, 'subneighborhoods': []}, {'id': 'TUxBQkJSSTQyNjQxMg', 'name': 'Bristol', 'city': {'id': 'TUxBQ01BUjU2MGMw', 'name': 'Mar del Plata'}, 'state': {'id': 'TUxBUENPU2ExMmFkMw', 'name': 'Bs.As. Costa Atlántica'}, 'country': {'id': 'AR', 'name': 'Argentina'}, 'geo_information': {'location': {'latitude': -38.001747, 'longitude': -57.542686}}, 'subneighborhoods': []}, {'id': 'TUxBQkNFTjI4MjE0OA', 'name': 'Centro', 'city': {'id': 'TUxBQ01BUjU2MGMw', 'name': 'Mar del Plata'}, 'state': {'id': 'TUxBUENPU2ExMmFkMw', 'name': 'Bs.As. Costa Atlántica'}, 'country': {'id': 'AR', 'name': 'Argentina'}, 'geo_information': {'location': {'latitude': -38.098362, 'longitude': -57.563972}}, 'subneighborhoods': []}, {'id': 'TVhYQ2hhdXZpblRVeEJRMDFCVWpVMk1HTXc', 'name': 'Chauvin', 'city': {'id': 'TUxBQ01BUjU2MGMw', 'name': 'Mar del Plata'}, 'state': {'id': 'TUxBUENPU2ExMmFkMw', 'name': 'Bs.As. Costa Atlántica'}, 'country': {'id': 'AR', 'name': 'Argentina'}, 'geo_information': {'location': {'latitude': -38.0216333, 'longitude': -57.5670609}}, 'subneighborhoods': []}, {'id': 'TVhYQ29uc3RpdHVjacOzblRVeEJRMDFCVWpVM', 'name': 'Constitución', 'city': {'id': 'TUxBQ01BUjU2MGMw', 'name': 'Mar del Plata'}, 'state': {'id': 'TUxBUENPU2ExMmFkMw', 'name': 'Bs.As. Costa Atlántica'}, 'country': {'id': 'AR', 'name': 'Argentina'}, 'geo_information': {'location': {'latitude': -37.9706057, 'longitude': -57.5451496}}, 'subneighborhoods': []}, {'id': 'TUxBQkVMRjc1NzUwNg', 'name': 'El Faro', 'city': {'id': 'TUxBQ01BUjU2MGMw', 'name': 'Mar del Plata'}, 'state': {'id': 'TUxBUENPU2ExMmFkMw', 'name': 'Bs.As. Costa Atlántica'}, 'country': {'id': 'AR', 'name': 'Argentina'}, 'geo_information': {'location': {'latitude': -37.999157, 'longitude': -57.55431}}, 'subneighborhoods': []}, {'id': 'TVhYR8O8ZW1lc1RVeEJRMDFCVWpVMk1HTXc', 'name': 'Güemes', 'city': {'id': 'TUxBQ01BUjU2MGMw', 'name': 'Mar del Plata'}, 'state': {'id': 'TUxBUENPU2ExMmFkMw', 'name': 'Bs.As. Costa Atlántica'}, 'country': {'id': 'AR', 'name': 'Argentina'}, 'geo_information': {'location': {'latitude': -38.0203772, 'longitude': -57.5477206}}, 'subneighborhoods': []}, {'id': 'TUxBQkxBUDU3MjQwNg', 'name': 'La Perla', 'city': {'id': 'TUxBQ01BUjU2MGMw', 'name': 'Mar del Plata'}, 'state': {'id': 'TUxBUENPU2ExMmFkMw', 'name': 'Bs.As. Costa Atlántica'}, 'country': {'id': 'AR', 'name': 'Argentina'}, 'geo_information': {'location': {'latitude': -37.988773, 'longitude': -57.549957}}, 'subneighborhoods': []}, {'id': 'TVhYTGFzIEF2ZW5pZGFzVFV4QlEwMUJValUyT', 'name': 'Las Avenidas', 'city': {'id': 'TUxBQ01BUjU2MGMw', 'name': 'Mar del Plata'}, 'state': {'id': 'TUxBUENPU2ExMmFkMw', 'name': 'Bs.As. Costa Atlántica'}, 'country': {'id': 'AR', 'name': 'Argentina'}, 'geo_information': {'location': {'latitude': -38.0332632, 'longitude': -57.5759829}}, 'subneighborhoods': []}, {'id': 'TVhYTGFzIExpbGFzVFV4QlEwMUJValUyTUdNd', 'name': 'Las Lilas', 'city': {'id': 'TUxBQ01BUjU2MGMw', 'name': 'Mar del Plata'}, 'state': {'id': 'TUxBUENPU2ExMmFkMw', 'name': 'Bs.As. Costa Atlántica'}, 'country': {'id': 'AR', 'name': 'Argentina'}, 'geo_information': {'location': {'latitude': -37.9846383, 'longitude': -57.5895728}}, 'subneighborhoods': []}, {'id': 'TVhYTG9tYSBTdGVsbGEgTWFyaXNUVXhCUTAxQ', 'name': 'Loma Stella Maris', 'city': {'id': 'TUxBQ01BUjU2MGMw', 'name': 'Mar del Plata'}, 'state': {'id': 'TUxBUENPU2ExMmFkMw', 'name': 'Bs.As. Costa Atlántica'}, 'country': {'id': 'AR', 'name': 'Argentina'}, 'geo_information': {'location': {'latitude': -38.0149109, 'longitude': -57.5383924}}, 'subneighborhoods': []}, {'id': 'TVhYTG9zIEFjYW50aWxhZG9zVFV4QlEwMUJVa', 'name': 'Los Acantilados', 'city': {'id': 'TUxBQ01BUjU2MGMw', 'name': 'Mar del Plata'}, 'state': {'id': 'TUxBUENPU2ExMmFkMw', 'name': 'Bs.As. Costa Atlántica'}, 'country': {'id': 'AR', 'name': 'Argentina'}, 'geo_information': {'location': {'latitude': -38.11666, 'longitude': -57.6}}, 'subneighborhoods': []}, {'id': 'TUxBQkxPUzI2Njg1Ng', 'name': 'Los Robles', 'city': {'id': 'TUxBQ01BUjU2MGMw', 'name': 'Mar del Plata'}, 'state': {'id': 'TUxBUENPU2ExMmFkMw', 'name': 'Bs.As. Costa Atlántica'}, 'country': {'id': 'AR', 'name': 'Argentina'}, 'geo_information': {'location': {'latitude': -38.008293, 'longitude': -57.589687}}, 'subneighborhoods': []}, {'id': 'TUxBQkxPUzY2NDc2MA', 'name': 'Los Troncos', 'city': {'id': 'TUxBQ01BUjU2MGMw', 'name': 'Mar del Plata'}, 'state': {'id': 'TUxBUENPU2ExMmFkMw', 'name': 'Bs.As. Costa Atlántica'}, 'country': {'id': 'AR', 'name': 'Argentina'}, 'geo_information': {'location': {'latitude': -38.018173, 'longitude': -57.54733}}, 'subneighborhoods': []}, {'id': 'TVhYTG9zIHBpbmFyZXNUVXhCUTAxQlVqVTJNR', 'name': 'Los pinares', 'city': {'id': 'TUxBQ01BUjU2MGMw', 'name': 'Mar del Plata'}, 'state': {'id': 'TUxBUENPU2ExMmFkMw', 'name': 'Bs.As. Costa Atlántica'}, 'country': {'id': 'AR', 'name': 'Argentina'}, 'geo_information': {'location': {'latitude': -37.9646922, 'longitude': -57.5676647}}, 'subneighborhoods': []}, {'id': 'TVhYTWFjcm9jZW50cm9UVXhCUTAxQlVqVTJNR', 'name': 'Macrocentro', 'city': {'id': 'TUxBQ01BUjU2MGMw', 'name': 'Mar del Plata'}, 'state': {'id': 'TUxBUENPU2ExMmFkMw', 'name': 'Bs.As. Costa Atlántica'}, 'country': {'id': 'AR', 'name': 'Argentina'}, 'geo_information': {'location': {'latitude': -37.9934237, 'longitude': -57.6266558}}, 'subneighborhoods': []}, {'id': 'TVhYTnVldmEgUG9tcGV5YVRVeEJRMDFCVWpVM', 'name': 'Nueva Pompeya', 'city': {'id': 'TUxBQ01BUjU2MGMw', 'name': 'Mar del Plata'}, 'state': {'id': 'TUxBUENPU2ExMmFkMw', 'name': 'Bs.As. Costa Atlántica'}, 'country': {'id': 'AR', 'name': 'Argentina'}, 'geo_information': {'location': {'latitude': -37.9862846, 'longitude': -57.5570618}}, 'subneighborhoods': []}, {'id': 'TUxBQk9UUjMwNjg0Mg', 'name': 'Otros Barrios', 'city': {'id': 'TUxBQ01BUjU2MGMw', 'name': 'Mar del Plata'}, 'state': {'id': 'TUxBUENPU2ExMmFkMw', 'name': 'Bs.As. Costa Atlántica'}, 'country': {'id': 'AR', 'name': 'Argentina'}, 'geo_information': {'location': {'latitude': -38.044514, 'longitude': -57.598923}}, 'subneighborhoods': []}, {'id': 'TUxBQlBBUjcwNDMyNg', 'name': 'Parque Camet', 'city': {'id': 'TUxBQ01BUjU2MGMw', 'name': 'Mar del Plata'}, 'state': {'id': 'TUxBUENPU2ExMmFkMw', 'name': 'Bs.As. Costa Atlántica'}, 'country': {'id': 'AR', 'name': 'Argentina'}, 'geo_information': {'location': {'latitude': -37.9419746, 'longitude': -57.5432816}}, 'subneighborhoods': []}, {'id': 'TUxBQlBBUjM2Nzg4NQ', 'name': 'Parque Luro', 'city': {'id': 'TUxBQ01BUjU2MGMw', 'name': 'Mar del Plata'}, 'state': {'id': 'TUxBUENPU2ExMmFkMw', 'name': 'Bs.As. Costa Atlántica'}, 'country': {'id': 'AR', 'name': 'Argentina'}, 'geo_information': {'location': {'latitude': -37.972355, 'longitude': -57.5594}}, 'subneighborhoods': []}, {'id': 'TUxBQlBMQTU4ODc5MA', 'name': 'Playa Chica', 'city': {'id': 'TUxBQ01BUjU2MGMw', 'name': 'Mar del Plata'}, 'state': {'id': 'TUxBUENPU2ExMmFkMw', 'name': 'Bs.As. Costa Atlántica'}, 'country': {'id': 'AR', 'name': 'Argentina'}, 'geo_information': {'location': {'latitude': -34.62468, 'longitude': -58.48744}}, 'subneighborhoods': []}, {'id': 'TUxBQlBMQTYzMjMyNQ', 'name': 'Playa Grande', 'city': {'id': 'TUxBQ01BUjU2MGMw', 'name': 'Mar del Plata'}, 'state': {'id': 'TUxBUENPU2ExMmFkMw', 'name': 'Bs.As. Costa Atlántica'}, 'country': {'id': 'AR', 'name': 'Argentina'}, 'geo_information': {'location': {'latitude': -38.027794, 'longitude': -57.53232}}, 'subneighborhoods': []}, {'id': 'TVhYUGxhemEgQ29sw7NuVFV4QlEwMUJValUyT', 'name': 'Plaza Colón', 'city': {'id': 'TUxBQ01BUjU2MGMw', 'name': 'Mar del Plata'}, 'state': {'id': 'TUxBUENPU2ExMmFkMw', 'name': 'Bs.As. Costa Atlántica'}, 'country': {'id': 'AR', 'name': 'Argentina'}, 'geo_information': {'location': {'latitude': -37.9826263, 'longitude': -57.5935496}}, 'subneighborhoods': []}, {'id': 'TVhYUGxhemEgTWl0cmVUVXhCUTAxQlVqVTJNR', 'name': 'Plaza Mitre', 'city': {'id': 'TUxBQ01BUjU2MGMw', 'name': 'Mar del Plata'}, 'state': {'id': 'TUxBUENPU2ExMmFkMw', 'name': 'Bs.As. Costa Atlántica'}, 'country': {'id': 'AR', 'name': 'Argentina'}, 'geo_information': {'location': {'latitude': -38.003334, 'longitude': -57.5550409}}, 'subneighborhoods': []}, {'id': 'TVhYUHVlcnRvVFV4QlEwMUJValUyTUdNdw', 'name': 'Puerto', 'city': {'id': 'TUxBQ01BUjU2MGMw', 'name': 'Mar del Plata'}, 'state': {'id': 'TUxBUENPU2ExMmFkMw', 'name': 'Bs.As. Costa Atlántica'}, 'country': {'id': 'AR', 'name': 'Argentina'}, 'geo_information': {'location': {'latitude': -38.0174836, 'longitude': -57.7406194}}, 'subneighborhoods': []}, {'id': 'TUxBQlBVTjQ2NTg3OQ', 'name': 'Punta Mogotes', 'city': {'id': 'TUxBQ01BUjU2MGMw', 'name': 'Mar del Plata'}, 'state': {'id': 'TUxBUENPU2ExMmFkMw', 'name': 'Bs.As. Costa Atlántica'}, 'country': {'id': 'AR', 'name': 'Argentina'}, 'geo_information': {'location': {'latitude': -38.066685, 'longitude': -57.54373}}, 'subneighborhoods': []}, {'id': 'TVhYUnVtZW5jb1RVeEJRMDFCVWpVMk1HTXc', 'name': 'Rumenco', 'city': {'id': 'TUxBQ01BUjU2MGMw', 'name': 'Mar del Plata'}, 'state': {'id': 'TUxBUENPU2ExMmFkMw', 'name': 'Bs.As. Costa Atlántica'}, 'country': {'id': 'AR', 'name': 'Argentina'}, 'geo_information': {'location': {'latitude': -38.0822352, 'longitude': -57.5899456}}, 'subneighborhoods': []}, {'id': 'TVhYU2FuIENhcmxvc1RVeEJRMDFCVWpVMk1HT', 'name': 'San Carlos', 'city': {'id': 'TUxBQ01BUjU2MGMw', 'name': 'Mar del Plata'}, 'state': {'id': 'TUxBUENPU2ExMmFkMw', 'name': 'Bs.As. Costa Atlántica'}, 'country': {'id': 'AR', 'name': 'Argentina'}, 'geo_information': {'location': {'latitude': -38.0173174, 'longitude': -57.7406199}}, 'subneighborhoods': []}, {'id': 'TVhYU2FuIEpvc8OpVFV4QlEwMUJValUyTUdNd', 'name': 'San José', 'city': {'id': 'TUxBQ01BUjU2MGMw', 'name': 'Mar del Plata'}, 'state': {'id': 'TUxBUENPU2ExMmFkMw', 'name': 'Bs.As. Costa Atlántica'}, 'country': {'id': 'AR', 'name': 'Argentina'}, 'geo_information': {'location': {'latitude': -37.9876426, 'longitude': -57.6379199}}, 'subneighborhoods': []}, {'id': 'TVhYVGVybWluYWwgTnVldmFUVXhCUTAxQlVqV', 'name': 'Terminal Nueva', 'city': {'id': 'TUxBQ01BUjU2MGMw', 'name': 'Mar del Plata'}, 'state': {'id': 'TUxBUENPU2ExMmFkMw', 'name': 'Bs.As. Costa Atlántica'}, 'country': {'id': 'AR', 'name': 'Argentina'}, 'geo_information': {'location': {'latitude': -37.9833583, 'longitude': -57.5780235}}, 'subneighborhoods': []}, {'id': 'TVhYVGVybWluYWwgVmllamFUVXhCUTAxQlVqV', 'name': 'Terminal Vieja', 'city': {'id': 'TUxBQ01BUjU2MGMw', 'name': 'Mar del Plata'}, 'state': {'id': 'TUxBUENPU2ExMmFkMw', 'name': 'Bs.As. Costa Atlántica'}, 'country': {'id': 'AR', 'name': 'Argentina'}, 'geo_information': {'location': {'latitude': -38.0108282, 'longitude': -57.5443532}}, 'subneighborhoods': []}, {'id': 'TUxBQlRPUjY1MTE0MQ', 'name': 'Torreón', 'city': {'id': 'TUxBQ01BUjU2MGMw', 'name': 'Mar del Plata'}, 'state': {'id': 'TUxBUENPU2ExMmFkMw', 'name': 'Bs.As. Costa Atlántica'}, 'country': {'id': 'AR', 'name': 'Argentina'}, 'geo_information': {'location': {'latitude': -38.008, 'longitude': -57.53334}}, 'subneighborhoods': []}, {'id': 'TVhYVHJpYnVuYWxlc1RVeEJRMDFCVWpVMk1HT', 'name': 'Tribunales', 'city': {'id': 'TUxBQ01BUjU2MGMw', 'name': 'Mar del Plata'}, 'state': {'id': 'TUxBUENPU2ExMmFkMw', 'name': 'Bs.As. Costa Atlántica'}, 'country': {'id': 'AR', 'name': 'Argentina'}, 'geo_information': {'location': {'latitude': -38.0093888, 'longitude': -57.5533086}}, 'subneighborhoods': []}, {'id': 'TUxBQlZBUjcxMjg0NA', 'name': 'Varese', 'city': {'id': 'TUxBQ01BUjU2MGMw', 'name': 'Mar del Plata'}, 'state': {'id': 'TUxBUENPU2ExMmFkMw', 'name': 'Bs.As. Costa Atlántica'}, 'country': {'id': 'AR', 'name': 'Argentina'}, 'geo_information': {'location': {'latitude': -38.014317, 'longitude': -57.530277}}, 'subneighborhoods': []}, {'id': 'TVhYWmFjYWduaW5pVFV4QlEwMUJValUyTUdNd', 'name': 'Zacagnini', 'city': {'id': 'TUxBQ01BUjU2MGMw', 'name': 'Mar del Plata'}, 'state': {'id': 'TUxBUENPU2ExMmFkMw', 'name': 'Bs.As. Costa Atlántica'}, 'country': {'id': 'AR', 'name': 'Argentina'}, 'geo_information': {'location': {'latitude': -37.9521327, 'longitude': -57.5393153}}, 'subneighborhoods': []}, {'id': 'TVhY4oCcQ2Fpc2FtYXLigJ1UVXhCUTAxQlVqV', 'name': '“Caisamar”', 'city': {'id': 'TUxBQ01BUjU2MGMw', 'name': 'Mar del Plata'}, 'state': {'id': 'TUxBUENPU2ExMmFkMw', 'name': 'Bs.As. Costa Atlántica'}, 'country': {'id': 'AR', 'name': 'Argentina'}, 'geo_information': {'location': {'latitude': -37.9562529, 'longitude': -57.5585246}}, 'subneighborhoods': []}, {'id': 'TVhYQWxhbW9zVFV4QlExQkpUbU0wTm1FNQ', 'name': 'Alamos', 'city': {'id': 'TUxBQ1BJTmM0NmE5', 'name': 'Pinamar'}, 'state': {'id': 'TUxBUENPU2ExMmFkMw', 'name': 'Bs.As. Costa Atlántica'}, 'country': {'id': 'AR', 'name': 'Argentina'}, 'geo_information': {'location': {'latitude': -37.1008534, 'longitude': -56.8648473}}, 'subneighborhoods': []}, {'id': 'TVhYQ2VudHJvVFV4QlExQkpUbU0wTm1FNQ', 'name': 'Centro', 'city': {'id': 'TUxBQ1BJTmM0NmE5', 'name': 'Pinamar'}, 'state': {'id': 'TUxBUENPU2ExMmFkMw', 'name': 'Bs.As. Costa Atlántica'}, 'country': {'id': 'AR', 'name': 'Argentina'}, 'geo_information': {'location': {'latitude': -37.1008534, 'longitude': -56.8648473}}, 'subneighborhoods': []}, {'id': 'TVhYRnJvbnRlcmFUVXhCUTFCSlRtTTBObUU1', 'name': 'Frontera', 'city': {'id': 'TUxBQ1BJTmM0NmE5', 'name': 'Pinamar'}, 'state': {'id': 'TUxBUENPU2ExMmFkMw', 'name': 'Bs.As. Costa Atlántica'}, 'country': {'id': 'AR', 'name': 'Argentina'}, 'geo_information': {'location': {'latitude': -37.1008534, 'longitude': -56.8648473}}, 'subneighborhoods': []}, {'id': 'TVhYR29sZiBOdWV2b1RVeEJRMUJKVG1NME5tR', 'name': 'Golf Nuevo', 'city': {'id': 'TUxBQ1BJTmM0NmE5', 'name': 'Pinamar'}, 'state': {'id': 'TUxBUENPU2ExMmFkMw', 'name': 'Bs.As. Costa Atlántica'}, 'country': {'id': 'AR', 'name': 'Argentina'}, 'geo_information': {'location': {'latitude': -37.1008534, 'longitude': -56.8648473}}, 'subneighborhoods': []}, {'id': 'TVhYR29sZiBWaWVqb1RVeEJRMUJKVG1NME5tR', 'name': 'Golf Viejo', 'city': {'id': 'TUxBQ1BJTmM0NmE5', 'name': 'Pinamar'}, 'state': {'id': 'TUxBUENPU2ExMmFkMw', 'name': 'Bs.As. Costa Atlántica'}, 'country': {'id': 'AR', 'name': 'Argentina'}, 'geo_information': {'location': {'latitude': -37.1008534, 'longitude': -56.8648473}}, 'subneighborhoods': []}, {'id': 'TVhYTGEgSGVycmFkdXJhVFV4QlExQkpUbU0wT', 'name': 'La Herradura', 'city': {'id': 'TUxBQ1BJTmM0NmE5', 'name': 'Pinamar'}, 'state': {'id': 'TUxBUENPU2ExMmFkMw', 'name': 'Bs.As. Costa Atlántica'}, 'country': {'id': 'AR', 'name': 'Argentina'}, 'geo_information': {'location': {'latitude': -37.1008534, 'longitude': -56.8648473}}, 'subneighborhoods': []}, {'id': 'TVhYTGluZWEgTm9ydGUgTWFyVFV4QlExQkpUb', 'name': 'Linea Norte Mar', 'city': {'id': 'TUxBQ1BJTmM0NmE5', 'name': 'Pinamar'}, 'state': {'id': 'TUxBUENPU2ExMmFkMw', 'name': 'Bs.As. Costa Atlántica'}, 'country': {'id': 'AR', 'name': 'Argentina'}, 'geo_information': {'location': {'latitude': -37.1008534, 'longitude': -56.8648473}}, 'subneighborhoods': []}, {'id': 'TVhYTGluZWEgU3VyIE1hclRVeEJRMUJKVG1NM', 'name': 'Linea Sur Mar', 'city': {'id': 'TUxBQ1BJTmM0NmE5', 'name': 'Pinamar'}, 'state': {'id': 'TUxBUENPU2ExMmFkMw', 'name': 'Bs.As. Costa Atlántica'}, 'country': {'id': 'AR', 'name': 'Argentina'}, 'geo_information': {'location': {'latitude': -37.1008534, 'longitude': -56.8648473}}, 'subneighborhoods': []}, {'id': 'TVhYTmF5YWRlc1RVeEJRMUJKVG1NME5tRTU', 'name': 'Nayades', 'city': {'id': 'TUxBQ1BJTmM0NmE5', 'name': 'Pinamar'}, 'state': {'id': 'TUxBUENPU2ExMmFkMw', 'name': 'Bs.As. Costa Atlántica'}, 'country': {'id': 'AR', 'name': 'Argentina'}, 'geo_information': {'location': {'latitude': -37.1008534, 'longitude': -56.8648473}}, 'subneighborhoods': []}, {'id': 'TVhYT2JyZXJvVFV4QlExQkpUbU0wTm1FNQ', 'name': 'Obrero', 'city': {'id': 'TUxBQ1BJTmM0NmE5', 'name': 'Pinamar'}, 'state': {'id': 'TUxBUENPU2ExMmFkMw', 'name': 'Bs.As. Costa Atlántica'}, 'country': {'id': 'AR', 'name': 'Argentina'}, 'geo_information': {'location': {'latitude': -37.1008534, 'longitude': -56.8648473}}, 'subneighborhoods': []}, {'id': 'TVhYUGluYW1hciBDaGljb1RVeEJRMUJKVG1NM', 'name': 'Pinamar Chico', 'city': {'id': 'TUxBQ1BJTmM0NmE5', 'name': 'Pinamar'}, 'state': {'id': 'TUxBUENPU2ExMmFkMw', 'name': 'Bs.As. Costa Atlántica'}, 'country': {'id': 'AR', 'name': 'Argentina'}, 'geo_information': {'location': {'latitude': -37.1008534, 'longitude': -56.8648473}}, 'subneighborhoods': []}, {'id': 'TVhYUGlvbmVyb3NUVXhCUTFCSlRtTTBObUU1', 'name': 'Pioneros', 'city': {'id': 'TUxBQ1BJTmM0NmE5', 'name': 'Pinamar'}, 'state': {'id': 'TUxBUENPU2ExMmFkMw', 'name': 'Bs.As. Costa Atlántica'}, 'country': {'id': 'AR', 'name': 'Argentina'}, 'geo_information': {'location': {'latitude': -37.092771, 'longitude': -56.8737496}}, 'subneighborhoods': []}, {'id': 'TVhYU2FuIEpvc8OpVFV4QlExQkpUbU0wTm1FN', 'name': 'San José', 'city': {'id': 'TUxBQ1BJTmM0NmE5', 'name': 'Pinamar'}, 'state': {'id': 'TUxBUENPU2ExMmFkMw', 'name': 'Bs.As. Costa Atlántica'}, 'country': {'id': 'AR', 'name': 'Argentina'}, 'geo_information': {'location': {'latitude': -37.1008534, 'longitude': -56.8648473}}, 'subneighborhoods': []}, {'id': 'TVhYVGVycmF6YXMgYWwgR29sZlRVeEJRMUJKV', 'name': 'Terrazas al Golf', 'city': {'id': 'TUxBQ1BJTmM0NmE5', 'name': 'Pinamar'}, 'state': {'id': 'TUxBUENPU2ExMmFkMw', 'name': 'Bs.As. Costa Atlántica'}, 'country': {'id': 'AR', 'name': 'Argentina'}, 'geo_information': {'location': {'latitude': -37.1008534, 'longitude': -56.8648473}}, 'subneighborhoods': []}, {'id': 'TVhYVHJpZGVudGVUVXhCUTFCSlRtTTBObUU1', 'name': 'Tridente', 'city': {'id': 'TUxBQ1BJTmM0NmE5', 'name': 'Pinamar'}, 'state': {'id': 'TUxBUENPU2ExMmFkMw', 'name': 'Bs.As. Costa Atlántica'}, 'country': {'id': 'AR', 'name': 'Argentina'}, 'geo_information': {'location': {'latitude': -37.1008534, 'longitude': -56.8648473}}, 'subneighborhoods': []}, {'id': 'TVhYVmlsbGEgUm9ibGVzVFV4QlExQkpUbU0wT', 'name': 'Villa Robles', 'city': {'id': 'TUxBQ1BJTmM0NmE5', 'name': 'Pinamar'}, 'state': {'id': 'TUxBUENPU2ExMmFkMw', 'name': 'Bs.As. Costa Atlántica'}, 'country': {'id': 'AR', 'name': 'Argentina'}, 'geo_information': {'location': {'latitude': -37.1008534, 'longitude': -56.8648473}}, 'subneighborhoods': []}, {'id': 'TVhYWm9uYSBCNVRVeEJRMUJKVG1NME5tRTU', 'name': 'Zona B5', 'city': {'id': 'TUxBQ1BJTmM0NmE5', 'name': 'Pinamar'}, 'state': {'id': 'TUxBUENPU2ExMmFkMw', 'name': 'Bs.As. Costa Atlántica'}, 'country': {'id': 'AR', 'name': 'Argentina'}, 'geo_information': {'location': {'latitude': -37.1008534, 'longitude': -56.8648473}}, 'subneighborhoods': []}, {'id': 'TVhYWm9uYSBEdXBsZXhUVXhCUTFCSlRtTTBOb', 'name': 'Zona Duplex', 'city': {'id': 'TUxBQ1BJTmM0NmE5', 'name': 'Pinamar'}, 'state': {'id': 'TUxBUENPU2ExMmFkMw', 'name': 'Bs.As. Costa Atlántica'}, 'country': {'id': 'AR', 'name': 'Argentina'}, 'geo_information': {'location': {'latitude': -37.1008534, 'longitude': -56.8648473}}, 'subneighborhoods': []}, {'id': 'TVhYTGEgQ2FybWVuY2l0YVRVeEJRMVpKVEdVN', 'name': 'La Carmencita', 'city': {'id': 'TUxBQ1ZJTGU4OGM3', 'name': 'Villa Gesell'}, 'state': {'id': 'TUxBUENPU2ExMmFkMw', 'name': 'Bs.As. Costa Atlántica'}, 'country': {'id': 'AR', 'name': 'Argentina'}, 'geo_information': {'location': {'latitude': -37.2496659, 'longitude': -56.9858265}}, 'subneighborhoods': []}, {'id': 'TVhYTGFzIEdhdmlvdGFzVFV4QlExWkpUR1U0T', 'name': 'Las Gaviotas', 'city': {'id': 'TUxBQ1ZJTGU4OGM3', 'name': 'Villa Gesell'}, 'state': {'id': 'TUxBUENPU2ExMmFkMw', 'name': 'Bs.As. Costa Atlántica'}, 'country': {'id': 'AR', 'name': 'Argentina'}, 'geo_information': {'location': {'latitude': -37.3372634, 'longitude': -57.0314509}}, 'subneighborhoods': []}, {'id': 'TVhYTGFzIExpbGFzVFV4QlExWkpUR1U0T0dNM', 'name': 'Las Lilas', 'city': {'id': 'TUxBQ1ZJTGU4OGM3', 'name': 'Villa Gesell'}, 'state': {'id': 'TUxBUENPU2ExMmFkMw', 'name': 'Bs.As. Costa Atlántica'}, 'country': {'id': 'AR', 'name': 'Argentina'}, 'geo_information': {'location': {'latitude': -37.9846383, 'longitude': -57.5895728}}, 'subneighborhoods': []}, {'id': 'TVhYWm9uYSBDZW50cm9UVXhCUTFaSlRHVTRPR', 'name': 'Zona Centro', 'city': {'id': 'TUxBQ1ZJTGU4OGM3', 'name': 'Villa Gesell'}, 'state': {'id': 'TUxBUENPU2ExMmFkMw', 'name': 'Bs.As. Costa Atlántica'}, 'country': {'id': 'AR', 'name': 'Argentina'}, 'geo_information': {'location': {'latitude': -37.255977, 'longitude': -56.9772114}}, 'subneighborhoods': []}, {'id': 'TVhYWm9uYSBOb3J0ZVRVeEJRMVpKVEdVNE9HT', 'name': 'Zona Norte', 'city': {'id': 'TUxBQ1ZJTGU4OGM3', 'name': 'Villa Gesell'}, 'state': {'id': 'TUxBUENPU2ExMmFkMw', 'name': 'Bs.As. Costa Atlántica'}, 'country': {'id': 'AR', 'name': 'Argentina'}, 'geo_information': {'location': {'latitude': -37.247403, 'longitude': -56.9700967}}, 'subneighborhoods': []}, {'id': 'TVhYWm9uYSBTdXJUVXhCUTFaSlRHVTRPR00z', 'name': 'Zona Sur', 'city': {'id': 'TUxBQ1ZJTGU4OGM3', 'name': 'Villa Gesell'}, 'state': {'id': 'TUxBUENPU2ExMmFkMw', 'name': 'Bs.As. Costa Atlántica'}, 'country': {'id': 'AR', 'name': 'Argentina'}, 'geo_information': {'location': {'latitude': -37.2821827, 'longitude': -56.9941646}}, 'subneighborhoods': []}, {'id': 'TUxBQkFDQTY0NTI1Nw', 'name': 'Acacias Blancas', 'city': {'id': 'TUxBQ0VTQzQ3YTc0', 'name': 'Escobar'}, 'state': {'id': 'TUxBUEdSQWU4ZDkz', 'name': 'Bs.As. G.B.A. Norte'}, 'country': {'id': 'AR', 'name': 'Argentina'}, 'geo_information': {'location': {'latitude': -34.406433, 'longitude': -58.760937}}, 'subneighborhoods': []}, {'id': 'TUxBQkFMQTIyODY3MQ', 'name': 'Alamo Alto', 'city': {'id': 'TUxBQ0VTQzQ3YTc0', 'name': 'Escobar'}, 'state': {'id': 'TUxBUEdSQWU4ZDkz', 'name': 'Bs.As. G.B.A. Norte'}, 'country': {'id': 'AR', 'name': 'Argentina'}, 'geo_information': {'location': {'latitude': -34.393944, 'longitude': -58.76826}}, 'subneighborhoods': []}, {'id': 'TUxBQkFMVDQxNjc3MQ', 'name': 'Altavista', 'city': {'id': 'TUxBQ0VTQzQ3YTc0', 'name': 'Escobar'}, 'state': {'id': 'TUxBUEdSQWU4ZDkz', 'name': 'Bs.As. G.B.A. Norte'}, 'country': {'id': 'AR', 'name': 'Argentina'}, 'geo_information': {'location': {'latitude': -34.379867, 'longitude': -58.7523077}}, 'subneighborhoods': []}, {'id': 'TUxBQkFMVDI3OTcxNg', 'name': 'Altos Don Segundo', 'city': {'id': 'TUxBQ0VTQzQ3YTc0', 'name': 'Escobar'}, 'state': {'id': 'TUxBUEdSQWU4ZDkz', 'name': 'Bs.As. G.B.A. Norte'}, 'country': {'id': 'AR', 'name': 'Argentina'}, 'geo_information': {'location': {'latitude': -34.330054, 'longitude': -58.8432697}}, 'subneighborhoods': []}, {'id': 'TUxBQkFMVDk3MjI2OA', 'name': 'Altos de Matheu', 'city': {'id': 'TUxBQ0VTQzQ3YTc0', 'name': 'Escobar'}, 'state': {'id': 'TUxBUEdSQWU4ZDkz', 'name': 'Bs.As. G.B.A. Norte'}, 'country': {'id': 'AR', 'name': 'Argentina'}, 'geo_information': {'location': {'latitude': -34.3821299, 'longitude': -58.8354084}}, 'subneighborhoods': []}, {'id': 'TUxBQkFNQTgyOTQ5NQ', 'name': 'Amarras de Escobar', 'city': {'id': 'TUxBQ0VTQzQ3YTc0', 'name': 'Escobar'}, 'state': {'id': 'TUxBUEdSQWU4ZDkz', 'name': 'Bs.As. G.B.A. Norte'}, 'country': {'id': 'AR', 'name': 'Argentina'}, 'geo_information': {'location': {'latitude': -34.3467, 'longitude': -58.8186}}, 'subneighborhoods': []}, {'id': 'TUxBQkFSQTUxNjk3Ng', 'name': 'Aranjuez', 'city': {'id': 'TUxBQ0VTQzQ3YTc0', 'name': 'Escobar'}, 'state': {'id': 'TUxBUEdSQWU4ZDkz', 'name': 'Bs.As. G.B.A. Norte'}, 'country': {'id': 'AR', 'name': 'Argentina'}, 'geo_information': {'location': {'latitude': -34.37052, 'longitude': -58.773376}}, 'subneighborhoods': []}, {'id': 'TUxBQkFSQTY5NDEyOQ', 'name': 'Aranzazu', 'city': {'id': 'TUxBQ0VTQzQ3YTc0', 'name': 'Escobar'}, 'state': {'id': 'TUxBUEdSQWU4ZDkz', 'name': 'Bs.As. G.B.A. Norte'}, 'country': {'id': 'AR', 'name': 'Argentina'}, 'geo_information': {'location': {'latitude': -34.43762, 'longitude': -58.734947}}, 'subneighborhoods': []}, {'id': 'TUxBQkJBUjk3ODM1Mw', 'name': 'Barrio Parque Matheu', 'city': {'id': 'TUxBQ0VTQzQ3YTc0', 'name': 'Escobar'}, 'state': {'id': 'TUxBUEdSQWU4ZDkz', 'name': 'Bs.As. G.B.A. Norte'}, 'country': {'id': 'AR', 'name': 'Argentina'}, 'geo_information': {'location': {'latitude': -34.387962, 'longitude': -58.83196}}, 'subneighborhoods': []}, {'id': 'TVhYQmFycmlvIFByaXZhZG8gRWwgRW5zdWXDs', 'name': 'Barrio Privado El Ensueño', 'city': {'id': 'TUxBQ0VTQzQ3YTc0', 'name': 'Escobar'}, 'state': {'id': 'TUxBUEdSQWU4ZDkz', 'name': 'Bs.As. G.B.A. Norte'}, 'country': {'id': 'AR', 'name': 'Argentina'}, 'geo_information': {'location': {'latitude': -34.3663977, 'longitude': -58.7404777}}, 'subneighborhoods': []}, {'id': 'TUxBQkJFTDY3NDda', 'name': 'Belén de Escobar', 'city': {'id': 'TUxBQ0VTQzQ3YTc0', 'name': 'Escobar'}, 'state': {'id': 'TUxBUEdSQWU4ZDkz', 'name': 'Bs.As. G.B.A. Norte'}, 'country': {'id': 'AR', 'name': 'Argentina'}, 'geo_information': {'location': {'latitude': -34.3402525, 'longitude': -58.7849434}}, 'subneighborhoods': []}, {'id': 'TUxBQkJFTjIzMDg0Nw', 'name': 'Benavidez Greens', 'city': {'id': 'TUxBQ0VTQzQ3YTc0', 'name': 'Escobar'}, 'state': {'id': 'TUxBUEdSQWU4ZDkz', 'name': 'Bs.As. G.B.A. Norte'}, 'country': {'id': 'AR', 'name': 'Argentina'}, 'geo_information': {'location': {'latitude': -34.423145, 'longitude': -58.709892}}, 'subneighborhoods': []}, {'id': 'TUxBQkNIQTc4NjMyMw', 'name': 'Chacras del Cazador', 'city': {'id': 'TUxBQ0VTQzQ3YTc0', 'name': 'Escobar'}, 'state': {'id': 'TUxBUEdSQWU4ZDkz', 'name': 'Bs.As. G.B.A. Norte'}, 'country': {'id': 'AR', 'name': 'Argentina'}, 'geo_information': {'location': {'latitude': -34.32637, 'longitude': -58.758705}}, 'subneighborhoods': []}, {'id': 'Q29uZG9taW5pbyBDaXZpcyBMb3MgQ2VpYm9zVFV4', 'name': 'Condominio Civis Los Ceibos', 'city': {'id': 'TUxBQ0VTQzQ3YTc0', 'name': 'Escobar'}, 'state': {'id': 'TUxBUEdSQWU4ZDkz', 'name': 'Bs.As. G.B.A. Norte'}, 'country': {'id': 'AR', 'name': 'Argentina'}, 'geo_information': {'location': {'latitude': -34.288837, 'longitude': -58.7798167}}, 'subneighborhoods': []}, {'id': 'TUxBQkNVQjgxMzcwOQ', 'name': 'Cube', 'city': {'id': 'TUxBQ0VTQzQ3YTc0', 'name': 'Escobar'}, 'state': {'id': 'TUxBUEdSQWU4ZDkz', 'name': 'Bs.As. G.B.A. Norte'}, 'country': {'id': 'AR', 'name': 'Argentina'}, 'geo_information': {'location': {'latitude': -34.2921, 'longitude': -58.766094}}, 'subneighborhoods': []}, {'id': 'TUxBQkVMQTU1MjM3Mg', 'name': 'El Aike', 'city': {'id': 'TUxBQ0VTQzQ3YTc0', 'name': 'Escobar'}, 'state': {'id': 'TUxBUEdSQWU4ZDkz', 'name': 'Bs.As. G.B.A. Norte'}, 'country': {'id': 'AR', 'name': 'Argentina'}, 'geo_information': {'location': {'latitude': -34.339583, 'longitude': -58.8497457}}, 'subneighborhoods': []}, {'id': 'TUxBQkVMQTk1ODg5Nw', 'name': 'El Aromo', 'city': {'id': 'TUxBQ0VTQzQ3YTc0', 'name': 'Escobar'}, 'state': {'id': 'TUxBUEdSQWU4ZDkz', 'name': 'Bs.As. G.B.A. Norte'}, 'country': {'id': 'AR', 'name': 'Argentina'}, 'geo_information': {'location': {'latitude': -34.335777, 'longitude': -58.84945}}, 'subneighborhoods': []}, {'id': 'TUxBQkVMQzcxNDYzNw', 'name': 'El Cantón', 'city': {'id': 'TUxBQ0VTQzQ3YTc0', 'name': 'Escobar'}, 'state': {'id': 'TUxBUEdSQWU4ZDkz', 'name': 'Bs.As. G.B.A. Norte'}, 'country': {'id': 'AR', 'name': 'Argentina'}, 'geo_information': {'location': {'latitude': -34.355003, 'longitude': -58.74204}}, 'subneighborhoods': []}, {'id': 'TUxBQkVMQzYxMTJa', 'name': 'El Cazador', 'city': {'id': 'TUxBQ0VTQzQ3YTc0', 'name': 'Escobar'}, 'state': {'id': 'TUxBUEdSQWU4ZDkz', 'name': 'Bs.As. G.B.A. Norte'}, 'country': {'id': 'AR', 'name': 'Argentina'}, 'geo_information': {'location': {'latitude': -34.3244247, 'longitude': -58.7588654}}, 'subneighborhoods': []}, {'id': 'TUxBQkVMQzMwMjc2MA', 'name': 'El Cazador (Barrio Cerrado)', 'city': {'id': 'TUxBQ0VTQzQ3YTc0', 'name': 'Escobar'}, 'state': {'id': 'TUxBUEdSQWU4ZDkz', 'name': 'Bs.As. G.B.A. Norte'}, 'country': {'id': 'AR', 'name': 'Argentina'}, 'geo_information': {'location': {'latitude': -34.3968819, 'longitude': -58.7251195}}, 'subneighborhoods': []}, {'id': 'TUxBQkVMQzQ2NzAyMA', 'name': 'El Cazal', 'city': {'id': 'TUxBQ0VTQzQ3YTc0', 'name': 'Escobar'}, 'state': {'id': 'TUxBUEdSQWU4ZDkz', 'name': 'Bs.As. G.B.A. Norte'}, 'country': {'id': 'AR', 'name': 'Argentina'}, 'geo_information': {'location': {'latitude': -34.29088, 'longitude': -58.761395}}, 'subneighborhoods': []}, {'id': 'TUxBQkVMTDY5OTczMw', 'name': 'El Lucero', 'city': {'id': 'TUxBQ0VTQzQ3YTc0', 'name': 'Escobar'}, 'state': {'id': 'TUxBUEdSQWU4ZDkz', 'name': 'Bs.As. G.B.A. Norte'}, 'country': {'id': 'AR', 'name': 'Argentina'}, 'geo_information': {'location': {'latitude': -34.42223, 'longitude': -58.763897}}, 'subneighborhoods': []}, {'id': 'TUxBQkVMTjM3NDA5Mg', 'name': 'El Naudir', 'city': {'id': 'TUxBQ0VTQzQ3YTc0', 'name': 'Escobar'}, 'state': {'id': 'TUxBUEdSQWU4ZDkz', 'name': 'Bs.As. G.B.A. Norte'}, 'country': {'id': 'AR', 'name': 'Argentina'}, 'geo_information': {'location': {'latitude': -34.317764, 'longitude': -58.741505}}, 'subneighborhoods': []}, {'id': 'TUxBQkVMTjc2NDEzMA', 'name': 'El Nogal', 'city': {'id': 'TUxBQ0VTQzQ3YTc0', 'name': 'Escobar'}, 'state': {'id': 'TUxBUEdSQWU4ZDkz', 'name': 'Bs.As. G.B.A. Norte'}, 'country': {'id': 'AR', 'name': 'Argentina'}, 'geo_information': {'location': {'latitude': -34.378548, 'longitude': -58.75656}}, 'subneighborhoods': []}, {'id': 'TUxBQkVMUDQwNzEyMw', 'name': 'El Pequeño Aromo', 'city': {'id': 'TUxBQ0VTQzQ3YTc0', 'name': 'Escobar'}, 'state': {'id': 'TUxBUEdSQWU4ZDkz', 'name': 'Bs.As. G.B.A. Norte'}, 'country': {'id': 'AR', 'name': 'Argentina'}, 'geo_information': {'location': {'latitude': -34.335213, 'longitude': -58.845127}}, 'subneighborhoods': []}, {'id': 'TUxBQkVMUjU5MTMzMQ', 'name': 'El Recodo', 'city': {'id': 'TUxBQ0VTQzQ3YTc0', 'name': 'Escobar'}, 'state': {'id': 'TUxBUEdSQWU4ZDkz', 'name': 'Bs.As. G.B.A. Norte'}, 'country': {'id': 'AR', 'name': 'Argentina'}, 'geo_information': {'location': {'latitude': -34.418903, 'longitude': -58.766567}}, 'subneighborhoods': []}, {'id': 'TVhYRWwgUm9ibGVUVXhCUTBWVFF6UTNZVGMw', 'name': 'El Roble', 'city': {'id': 'TUxBQ0VTQzQ3YTc0', 'name': 'Escobar'}, 'state': {'id': 'TUxBUEdSQWU4ZDkz', 'name': 'Bs.As. G.B.A. Norte'}, 'country': {'id': 'AR', 'name': 'Argentina'}, 'geo_information': {'location': {'latitude': -34.4433668, 'longitude': -58.7401138}}, 'subneighborhoods': []}, {'id': 'TVhYRmluY2FzIGRlIEVzY29iYXJUVXhCUTBWV', 'name': 'Fincas de Escobar', 'city': {'id': 'TUxBQ0VTQzQ3YTc0', 'name': 'Escobar'}, 'state': {'id': 'TUxBUEdSQWU4ZDkz', 'name': 'Bs.As. G.B.A. Norte'}, 'country': {'id': 'AR', 'name': 'Argentina'}, 'geo_information': {'location': {'latitude': -34.3606695, 'longitude': -58.7671474}}, 'subneighborhoods': []}, {'id': 'TUxBQkZJTjMxNDIwMg', 'name': 'Fincas de Maschwitz', 'city': {'id': 'TUxBQ0VTQzQ3YTc0', 'name': 'Escobar'}, 'state': {'id': 'TUxBUEdSQWU4ZDkz', 'name': 'Bs.As. G.B.A. Norte'}, 'country': {'id': 'AR', 'name': 'Argentina'}, 'geo_information': {'location': {'latitude': -34.363007, 'longitude': -58.76657}}, 'subneighborhoods': []}, {'id': 'TUxBQkZJTjU2NzgxNQ', 'name': 'Fincas del Lago', 'city': {'id': 'TUxBQ0VTQzQ3YTc0', 'name': 'Escobar'}, 'state': {'id': 'TUxBUEdSQWU4ZDkz', 'name': 'Bs.As. G.B.A. Norte'}, 'country': {'id': 'AR', 'name': 'Argentina'}, 'geo_information': {'location': {'latitude': -34.364693, 'longitude': -58.76121}}, 'subneighborhoods': []}, {'id': 'TUxBQkdBUjY5ODBa', 'name': 'Garín', 'city': {'id': 'TUxBQ0VTQzQ3YTc0', 'name': 'Escobar'}, 'state': {'id': 'TUxBUEdSQWU4ZDkz', 'name': 'Bs.As. G.B.A. Norte'}, 'country': {'id': 'AR', 'name': 'Argentina'}, 'geo_information': {'location': {'latitude': -34.4224358, 'longitude': -58.7377548}}, 'subneighborhoods': []}, {'id': 'TVhYR3JlZW4gU3R5bGVUVXhCUTBWVFF6UTNZV', 'name': 'Green Style', 'city': {'id': 'TUxBQ0VTQzQ3YTc0', 'name': 'Escobar'}, 'state': {'id': 'TUxBUEdSQWU4ZDkz', 'name': 'Bs.As. G.B.A. Norte'}, 'country': {'id': 'AR', 'name': 'Argentina'}, 'geo_information': {'location': {'latitude': -34.3851684, 'longitude': -58.7585193}}, 'subneighborhoods': []}, {'id': 'TUxBQkhBUjIxNDc0MA', 'name': 'Haras Santa María', 'city': {'id': 'TUxBQ0VTQzQ3YTc0', 'name': 'Escobar'}, 'state': {'id': 'TUxBUEdSQWU4ZDkz', 'name': 'Bs.As. G.B.A. Norte'}, 'country': {'id': 'AR', 'name': 'Argentina'}, 'geo_information': {'location': {'latitude': -34.340614, 'longitude': -58.850418}}, 'subneighborhoods': []}, {'id': 'TUxBQklORzI4MDda', 'name': 'Ingeniero Maschwitz', 'city': {'id': 'TUxBQ0VTQzQ3YTc0', 'name': 'Escobar'}, 'state': {'id': 'TUxBUEdSQWU4ZDkz', 'name': 'Bs.As. G.B.A. Norte'}, 'country': {'id': 'AR', 'name': 'Argentina'}, 'geo_information': {'location': {'latitude': -34.3828884, 'longitude': -58.7340172}}, 'subneighborhoods': []}, {'id': 'TUxBQkpBUjMyMjQ1OA', 'name': 'Jardines de Escobar', 'city': {'id': 'TUxBQ0VTQzQ3YTc0', 'name': 'Escobar'}, 'state': {'id': 'TUxBUEdSQWU4ZDkz', 'name': 'Bs.As. G.B.A. Norte'}, 'country': {'id': 'AR', 'name': 'Argentina'}, 'geo_information': {'location': {'latitude': -34.359737, 'longitude': -58.805885}}, 'subneighborhoods': []}, {'id': 'TUxBQkpBUjk0NDIwNA', 'name': 'Jardín Naútico Escobar', 'city': {'id': 'TUxBQ0VTQzQ3YTc0', 'name': 'Escobar'}, 'state': {'id': 'TUxBUEdSQWU4ZDkz', 'name': 'Bs.As. G.B.A. Norte'}, 'country': {'id': 'AR', 'name': 'Argentina'}, 'geo_information': {'location': {'latitude': -34.25365, 'longitude': -58.74907}}, 'subneighborhoods': []}, {'id': 'TUxBQkxBQTQ0NjEwOQ', 'name': 'La Aldea', 'city': {'id': 'TUxBQ0VTQzQ3YTc0', 'name': 'Escobar'}, 'state': {'id': 'TUxBUEdSQWU4ZDkz', 'name': 'Bs.As. G.B.A. Norte'}, 'country': {'id': 'AR', 'name': 'Argentina'}, 'geo_information': {'location': {'latitude': -34.310066, 'longitude': -58.72791}}, 'subneighborhoods': []}, {'id': 'TUxBQkxBQTM1MTE0Mw', 'name': 'La Arboleda', 'city': {'id': 'TUxBQ0VTQzQ3YTc0', 'name': 'Escobar'}, 'state': {'id': 'TUxBUEdSQWU4ZDkz', 'name': 'Bs.As. G.B.A. Norte'}, 'country': {'id': 'AR', 'name': 'Argentina'}, 'geo_information': {'location': {'latitude': -34.40324, 'longitude': -58.7427}}, 'subneighborhoods': []}, {'id': 'TUxBQkxBQjk1MzIyMQ', 'name': 'La Barra Village', 'city': {'id': 'TUxBQ0VTQzQ3YTc0', 'name': 'Escobar'}, 'state': {'id': 'TUxBUEdSQWU4ZDkz', 'name': 'Bs.As. G.B.A. Norte'}, 'country': {'id': 'AR', 'name': 'Argentina'}, 'geo_information': {'location': {'latitude': -34.368576, 'longitude': -58.782093}}, 'subneighborhoods': []}, {'id': 'TUxBQkxBQzg4OTA1NQ', 'name': 'La Candelaria', 'city': {'id': 'TUxBQ0VTQzQ3YTc0', 'name': 'Escobar'}, 'state': {'id': 'TUxBUEdSQWU4ZDkz', 'name': 'Bs.As. G.B.A. Norte'}, 'country': {'id': 'AR', 'name': 'Argentina'}, 'geo_information': {'location': {'latitude': -34.399937, 'longitude': -58.74058}}, 'subneighborhoods': []}, {'id': 'TUxBQkxPTTkxODla', 'name': 'Loma Verde', 'city': {'id': 'TUxBQ0VTQzQ3YTc0', 'name': 'Escobar'}, 'state': {'id': 'TUxBUEdSQWU4ZDkz', 'name': 'Bs.As. G.B.A. Norte'}, 'country': {'id': 'AR', 'name': 'Argentina'}, 'geo_information': {'location': {'latitude': -34.330647, 'longitude': -58.837036}}, 'subneighborhoods': []}, {'id': 'TVhYTG9zIENhcmFjb2xlc1RVeEJRMFZUUXpRM', 'name': 'Los Caracoles', 'city': {'id': 'TUxBQ0VTQzQ3YTc0', 'name': 'Escobar'}, 'state': {'id': 'TUxBUEdSQWU4ZDkz', 'name': 'Bs.As. G.B.A. Norte'}, 'country': {'id': 'AR', 'name': 'Argentina'}, 'geo_information': {'location': {'latitude': -34.4023335, 'longitude': -58.7058894}}, 'subneighborhoods': []}, {'id': 'TVhYTG9zIENlaWJvc1RVeEJRMFZUUXpRM1lUY', 'name': 'Los Ceibos', 'city': {'id': 'TUxBQ0VTQzQ3YTc0', 'name': 'Escobar'}, 'state': {'id': 'TUxBUEdSQWU4ZDkz', 'name': 'Bs.As. G.B.A. Norte'}, 'country': {'id': 'AR', 'name': 'Argentina'}, 'geo_information': {'location': {'latitude': -34.2881892, 'longitude': -58.7718714}}, 'subneighborhoods': []}, {'id': 'TG9zIFJvYmxlcyBkZSBNYXNjaHdpdHpUVXhCUTBW', 'name': 'Los Robles de Maschwitz', 'city': {'id': 'TUxBQ0VTQzQ3YTc0', 'name': 'Escobar'}, 'state': {'id': 'TUxBUEdSQWU4ZDkz', 'name': 'Bs.As. G.B.A. Norte'}, 'country': {'id': 'AR', 'name': 'Argentina'}, 'geo_information': {'location': {'latitude': -34.39161, 'longitude': -58.758663}}, 'subneighborhoods': []}, {'id': 'TUxBQkxPUzE1MzExMg', 'name': 'Los Ángeles Village', 'city': {'id': 'TUxBQ0VTQzQ3YTc0', 'name': 'Escobar'}, 'state': {'id': 'TUxBUEdSQWU4ZDkz', 'name': 'Bs.As. G.B.A. Norte'}, 'country': {'id': 'AR', 'name': 'Argentina'}, 'geo_information': {'location': {'latitude': -34.577694, 'longitude': -58.50819}}, 'subneighborhoods': []}, {'id': 'TUxBQk1BUTI1NjRa', 'name': 'Maquinista F. Savio Este', 'city': {'id': 'TUxBQ0VTQzQ3YTc0', 'name': 'Escobar'}, 'state': {'id': 'TUxBUEdSQWU4ZDkz', 'name': 'Bs.As. G.B.A. Norte'}, 'country': {'id': 'AR', 'name': 'Argentina'}, 'geo_information': {'location': {'latitude': -34.4046214, 'longitude': -58.769464}}, 'subneighborhoods': []}, {'id': 'TUxBQk1BUjIzOTAyMw', 'name': 'Marinas Maschwitz', 'city': {'id': 'TUxBQ0VTQzQ3YTc0', 'name': 'Escobar'}, 'state': {'id': 'TUxBUEdSQWU4ZDkz', 'name': 'Bs.As. G.B.A. Norte'}, 'country': {'id': 'AR', 'name': 'Argentina'}, 'geo_information': {'location': {'latitude': -34.370605, 'longitude': -58.673534}}, 'subneighborhoods': []}, {'id': 'TUxBQk1BUzQwNDA1MQ', 'name': 'Maschwitz C.C.', 'city': {'id': 'TUxBQ0VTQzQ3YTc0', 'name': 'Escobar'}, 'state': {'id': 'TUxBUEdSQWU4ZDkz', 'name': 'Bs.As. G.B.A. Norte'}, 'country': {'id': 'AR', 'name': 'Argentina'}, 'geo_information': {'location': {'latitude': -34.39074, 'longitude': -58.729958}}, 'subneighborhoods': []}, {'id': 'TUxBQk1BUzM0MTI0Mw', 'name': 'Maschwitz Privado', 'city': {'id': 'TUxBQ0VTQzQ3YTc0', 'name': 'Escobar'}, 'state': {'id': 'TUxBUEdSQWU4ZDkz', 'name': 'Bs.As. G.B.A. Norte'}, 'country': {'id': 'AR', 'name': 'Argentina'}, 'geo_information': {'location': {'latitude': -34.393093, 'longitude': -58.766563}}, 'subneighborhoods': []}, {'id': 'TUxBQk1BUzMzMzQzMw', 'name': 'Maschwitz Village', 'city': {'id': 'TUxBQ0VTQzQ3YTc0', 'name': 'Escobar'}, 'state': {'id': 'TUxBUEdSQWU4ZDkz', 'name': 'Bs.As. G.B.A. Norte'}, 'country': {'id': 'AR', 'name': 'Argentina'}, 'geo_information': {'location': {'latitude': -34.38289, 'longitude': -58.734016}}, 'subneighborhoods': []}, {'id': 'TUxBQk1BVDE3NTda', 'name': 'Matheu', 'city': {'id': 'TUxBQ0VTQzQ3YTc0', 'name': 'Escobar'}, 'state': {'id': 'TUxBUEdSQWU4ZDkz', 'name': 'Bs.As. G.B.A. Norte'}, 'country': {'id': 'AR', 'name': 'Argentina'}, 'geo_information': {'location': {'latitude': -34.3829048, 'longitude': -58.8251105}}, 'subneighborhoods': []}, {'id': 'TUxBQk1JUjQxOTY5Ng', 'name': 'Miraflores', 'city': {'id': 'TUxBQ0VTQzQ3YTc0', 'name': 'Escobar'}, 'state': {'id': 'TUxBUEdSQWU4ZDkz', 'name': 'Bs.As. G.B.A. Norte'}, 'country': {'id': 'AR', 'name': 'Argentina'}, 'geo_information': {'location': {'latitude': -34.452736, 'longitude': -58.731705}}, 'subneighborhoods': []}, {'id': 'TUxBQk5BVTExMTI4NA', 'name': 'Náutico Escobar', 'city': {'id': 'TUxBQ0VTQzQ3YTc0', 'name': 'Escobar'}, 'state': {'id': 'TUxBUEdSQWU4ZDkz', 'name': 'Bs.As. G.B.A. Norte'}, 'country': {'id': 'AR', 'name': 'Argentina'}, 'geo_information': {'location': {'latitude': -34.29935, 'longitude': -58.77149}}, 'subneighborhoods': []}, {'id': 'TUxBQlBBTDY0NTkzNw', 'name': 'Palmer ´s Cottage', 'city': {'id': 'TUxBQ0VTQzQ3YTc0', 'name': 'Escobar'}, 'state': {'id': 'TUxBUEdSQWU4ZDkz', 'name': 'Bs.As. G.B.A. Norte'}, 'country': {'id': 'AR', 'name': 'Argentina'}, 'geo_information': {'location': {'latitude': -34.388046, 'longitude': -58.765812}}, 'subneighborhoods': []}, {'id': 'TUxBQlBBUjc1NTQxMQ', 'name': 'Parque Alta Vista', 'city': {'id': 'TUxBQ0VTQzQ3YTc0', 'name': 'Escobar'}, 'state': {'id': 'TUxBUEdSQWU4ZDkz', 'name': 'Bs.As. G.B.A. Norte'}, 'country': {'id': 'AR', 'name': 'Argentina'}, 'geo_information': {'location': {'latitude': -34.379867, 'longitude': -58.7523077}}, 'subneighborhoods': []}, {'id': 'TUxBQlBVRTYwMDVa', 'name': 'Puerto Paraná', 'city': {'id': 'TUxBQ0VTQzQ3YTc0', 'name': 'Escobar'}, 'state': {'id': 'TUxBUEdSQWU4ZDkz', 'name': 'Bs.As. G.B.A. Norte'}, 'country': {'id': 'AR', 'name': 'Argentina'}, 'geo_information': {'location': {'latitude': -34.280407, 'longitude': -58.719257}}, 'subneighborhoods': []}, {'id': 'TUxBQlBVRTMyMzU0MA', 'name': 'Puertos', 'city': {'id': 'TUxBQ0VTQzQ3YTc0', 'name': 'Escobar'}, 'state': {'id': 'TUxBUEdSQWU4ZDkz', 'name': 'Bs.As. G.B.A. Norte'}, 'country': {'id': 'AR', 'name': 'Argentina'}, 'geo_information': {'location': {'latitude': -34.35366, 'longitude': -58.73561}}, 'subneighborhoods': []}, {'id': 'TVhYUHVlcnRvcyBBcmF1Y2FyaWFzVFV4QlEwV', 'name': 'Puertos Araucarias', 'city': {'id': 'TUxBQ0VTQzQ3YTc0', 'name': 'Escobar'}, 'state': {'id': 'TUxBUEdSQWU4ZDkz', 'name': 'Bs.As. G.B.A. Norte'}, 'country': {'id': 'AR', 'name': 'Argentina'}, 'geo_information': {'location': {'latitude': -34.3338423, 'longitude': -58.7265587}}, 'subneighborhoods': []}, {'id': 'TVhYUHVlcnRvcyBDZWlib3NUVXhCUTBWVFF6U', 'name': 'Puertos Ceibos', 'city': {'id': 'TUxBQ0VTQzQ3YTc0', 'name': 'Escobar'}, 'state': {'id': 'TUxBUEdSQWU4ZDkz', 'name': 'Bs.As. G.B.A. Norte'}, 'country': {'id': 'AR', 'name': 'Argentina'}, 'geo_information': {'location': {'latitude': -34.346536, 'longitude': -58.7418173}}, 'subneighborhoods': []}, {'id': 'TVhYUHVlcnRvcyBDb3N0YXNUVXhCUTBWVFF6U', 'name': 'Puertos Costas', 'city': {'id': 'TUxBQ0VTQzQ3YTc0', 'name': 'Escobar'}, 'state': {'id': 'TUxBUEdSQWU4ZDkz', 'name': 'Bs.As. G.B.A. Norte'}, 'country': {'id': 'AR', 'name': 'Argentina'}, 'geo_information': {'location': {'latitude': -34.3311188, 'longitude': -58.7437891}}, 'subneighborhoods': []}, {'id': 'TVhYUHVlcnRvcyBNdWVsbGVzVFV4QlEwVlRRe', 'name': 'Puertos Muelles', 'city': {'id': 'TUxBQ0VTQzQ3YTc0', 'name': 'Escobar'}, 'state': {'id': 'TUxBUEdSQWU4ZDkz', 'name': 'Bs.As. G.B.A. Norte'}, 'country': {'id': 'AR', 'name': 'Argentina'}, 'geo_information': {'location': {'latitude': -34.3536592, 'longitude': -58.7356111}}, 'subneighborhoods': []}, {'id': 'TVhYUHVlcnRvcyBOYXRpdmFzVFV4QlEwVlRRe', 'name': 'Puertos Nativas', 'city': {'id': 'TUxBQ0VTQzQ3YTc0', 'name': 'Escobar'}, 'state': {'id': 'TUxBUEdSQWU4ZDkz', 'name': 'Bs.As. G.B.A. Norte'}, 'country': {'id': 'AR', 'name': 'Argentina'}, 'geo_information': {'location': {'latitude': -34.3536592, 'longitude': -58.7356111}}, 'subneighborhoods': []}, {'id': 'TUxBQlBVRTU5NTU3OQ', 'name': 'Puertos del Lago - Acacias', 'city': {'id': 'TUxBQ0VTQzQ3YTc0', 'name': 'Escobar'}, 'state': {'id': 'TUxBUEdSQWU4ZDkz', 'name': 'Bs.As. G.B.A. Norte'}, 'country': {'id': 'AR', 'name': 'Argentina'}, 'geo_information': {'location': {'latitude': -34.35366, 'longitude': -58.73561}}, 'subneighborhoods': []}, {'id': 'TUxBQlBVRTM4NjE1Mg', 'name': 'Puertos del Lago - Muelles', 'city': {'id': 'TUxBQ0VTQzQ3YTc0', 'name': 'Escobar'}, 'state': {'id': 'TUxBUEdSQWU4ZDkz', 'name': 'Bs.As. G.B.A. Norte'}, 'country': {'id': 'AR', 'name': 'Argentina'}, 'geo_information': {'location': {'latitude': -34.35366, 'longitude': -58.73561}}, 'subneighborhoods': []}, {'id': 'TUxBQlBVTjkxMjE3Mg', 'name': 'Punta Parana', 'city': {'id': 'TUxBQ0VTQzQ3YTc0', 'name': 'Escobar'}, 'state': {'id': 'TUxBUEdSQWU4ZDkz', 'name': 'Bs.As. G.B.A. Norte'}, 'country': {'id': 'AR', 'name': 'Argentina'}, 'geo_information': {'location': {'latitude': -34.246496, 'longitude': -58.7330027}}, 'subneighborhoods': []}, {'id': 'TVhYUmliZXJhc1RVeEJRMFZUUXpRM1lUYzA', 'name': 'Riberas', 'city': {'id': 'TUxBQ0VTQzQ3YTc0', 'name': 'Escobar'}, 'state': {'id': 'TUxBUEdSQWU4ZDkz', 'name': 'Bs.As. G.B.A. Norte'}, 'country': {'id': 'AR', 'name': 'Argentina'}, 'geo_information': {'location': {'latitude': -34.3312607, 'longitude': -58.7359091}}, 'subneighborhoods': []}, {'id': 'TUxBQlJJTjI3NTUxMg', 'name': 'Rincón de Maschwitz', 'city': {'id': 'TUxBQ0VTQzQ3YTc0', 'name': 'Escobar'}, 'state': {'id': 'TUxBUEdSQWU4ZDkz', 'name': 'Bs.As. G.B.A. Norte'}, 'country': {'id': 'AR', 'name': 'Argentina'}, 'geo_information': {'location': {'latitude': -34.394337, 'longitude': -58.725765}}, 'subneighborhoods': []}, {'id': 'TUxBQlJJVjE5NDczNA', 'name': 'River Oak´s', 'city': {'id': 'TUxBQ0VTQzQ3YTc0', 'name': 'Escobar'}, 'state': {'id': 'TUxBUEdSQWU4ZDkz', 'name': 'Bs.As. G.B.A. Norte'}, 'country': {'id': 'AR', 'name': 'Argentina'}, 'geo_information': {'location': {'latitude': -34.381025, 'longitude': -58.7341977}}, 'subneighborhoods': []}, {'id': 'TUxBQlJJVjE4MjY1Mw', 'name': 'Riviera Park', 'city': {'id': 'TUxBQ0VTQzQ3YTc0', 'name': 'Escobar'}, 'state': {'id': 'TUxBUEdSQWU4ZDkz', 'name': 'Bs.As. G.B.A. Norte'}, 'country': {'id': 'AR', 'name': 'Argentina'}, 'geo_information': {'location': {'latitude': -34.397488, 'longitude': -58.657585}}, 'subneighborhoods': []}, {'id': 'TUxBQlNBTjYwNjgwOQ', 'name': 'San Andres', 'city': {'id': 'TUxBQ0VTQzQ3YTc0', 'name': 'Escobar'}, 'state': {'id': 'TUxBUEdSQWU4ZDkz', 'name': 'Bs.As. G.B.A. Norte'}, 'country': {'id': 'AR', 'name': 'Argentina'}, 'geo_information': {'location': {'latitude': -34.577694, 'longitude': -58.50819}}, 'subneighborhoods': []}, {'id': 'TUxBQlNBTjI3OTgxMg', 'name': 'San Antonio', 'city': {'id': 'TUxBQ0VTQzQ3YTc0', 'name': 'Escobar'}, 'state': {'id': 'TUxBUEdSQWU4ZDkz', 'name': 'Bs.As. G.B.A. Norte'}, 'country': {'id': 'AR', 'name': 'Argentina'}, 'geo_information': {'location': {'latitude': -34.36878, 'longitude': -58.758656}}, 'subneighborhoods': []}, {'id': 'TUxBQlNBTjM3MzY5OQ', 'name': 'San Lucas Village', 'city': {'id': 'TUxBQ0VTQzQ3YTc0', 'name': 'Escobar'}, 'state': {'id': 'TUxBUEdSQWU4ZDkz', 'name': 'Bs.As. G.B.A. Norte'}, 'country': {'id': 'AR', 'name': 'Argentina'}, 'geo_information': {'location': {'latitude': -34.40028, 'longitude': -58.742588}}, 'subneighborhoods': []}, {'id': 'TUxBQlNBTjgzMTA0Ng', 'name': 'San Matías', 'city': {'id': 'TUxBQ0VTQzQ3YTc0', 'name': 'Escobar'}, 'state': {'id': 'TUxBUEdSQWU4ZDkz', 'name': 'Bs.As. G.B.A. Norte'}, 'country': {'id': 'AR', 'name': 'Argentina'}, 'geo_information': {'location': {'latitude': -34.360874, 'longitude': -58.75124}}, 'subneighborhoods': []}, {'id': 'TUxBQlNBTjQ5NzE0MQ', 'name': 'San Matías Altos de  Maschwitz', 'city': {'id': 'TUxBQ0VTQzQ3YTc0', 'name': 'Escobar'}, 'state': {'id': 'TUxBUEdSQWU4ZDkz', 'name': 'Bs.As. G.B.A. Norte'}, 'country': {'id': 'AR', 'name': 'Argentina'}, 'geo_information': {'location': {'latitude': -34.40065, 'longitude': -58.764442}}, 'subneighborhoods': []}, {'id': 'TUxBQlNBTjYzMzU1Nw', 'name': 'San Sebastián', 'city': {'id': 'TUxBQ0VTQzQ3YTc0', 'name': 'Escobar'}, 'state': {'id': 'TUxBUEdSQWU4ZDkz', 'name': 'Bs.As. G.B.A. Norte'}, 'country': {'id': 'AR', 'name': 'Argentina'}, 'geo_information': {'location': {'latitude': -34.344246, 'longitude': -58.88626}}, 'subneighborhoods': []}, {'id': 'TUxBQlNBTjY1NDE4MQ', 'name': 'Santa Isabel', 'city': {'id': 'TUxBQ0VTQzQ3YTc0', 'name': 'Escobar'}, 'state': {'id': 'TUxBUEdSQWU4ZDkz', 'name': 'Bs.As. G.B.A. Norte'}, 'country': {'id': 'AR', 'name': 'Argentina'}, 'geo_information': {'location': {'latitude': -34.36898, 'longitude': -58.76199}}, 'subneighborhoods': []}, {'id': 'TUxBQlNBTjMyMDkyOA', 'name': 'Santa María Club de Campo', 'city': {'id': 'TUxBQ0VTQzQ3YTc0', 'name': 'Escobar'}, 'state': {'id': 'TUxBUEdSQWU4ZDkz', 'name': 'Bs.As. G.B.A. Norte'}, 'country': {'id': 'AR', 'name': 'Argentina'}, 'geo_information': {'location': {'latitude': -34.340614, 'longitude': -58.850418}}, 'subneighborhoods': []}, {'id': 'TUxBQlNFUDg2MDEyNg', 'name': 'Septiembre', 'city': {'id': 'TUxBQ0VTQzQ3YTc0', 'name': 'Escobar'}, 'state': {'id': 'TUxBUEdSQWU4ZDkz', 'name': 'Bs.As. G.B.A. Norte'}, 'country': {'id': 'AR', 'name': 'Argentina'}, 'geo_information': {'location': {'latitude': -34.368225, 'longitude': -58.781918}}, 'subneighborhoods': []}, {'id': 'TUxBQlZJTDkxOTMyMQ', 'name': 'Villa Olivos', 'city': {'id': 'TUxBQ0VTQzQ3YTc0', 'name': 'Escobar'}, 'state': {'id': 'TUxBUEdSQWU4ZDkz', 'name': 'Bs.As. G.B.A. Norte'}, 'country': {'id': 'AR', 'name': 'Argentina'}, 'geo_information': {'location': {'latitude': -34.446743, 'longitude': -58.727512}}, 'subneighborhoods': []}, {'id': 'TUxBQldFRTUxODI5MA', 'name': 'Weekend', 'city': {'id': 'TUxBQ0VTQzQ3YTc0', 'name': 'Escobar'}, 'state': {'id': 'TUxBUEdSQWU4ZDkz', 'name': 'Bs.As. G.B.A. Norte'}, 'country': {'id': 'AR', 'name': 'Argentina'}, 'geo_information': {'location': {'latitude': -34.370407, 'longitude': -58.773186}}, 'subneighborhoods': []}, {'id': 'TUxBQllOQzc5MTM2OQ', 'name': 'Ynca Huasi', 'city': {'id': 'TUxBQ0VTQzQ3YTc0', 'name': 'Escobar'}, 'state': {'id': 'TUxBUEdSQWU4ZDkz', 'name': 'Bs.As. G.B.A. Norte'}, 'country': {'id': 'AR', 'name': 'Argentina'}, 'geo_information': {'location': {'latitude': -34.553207, 'longitude': -58.45376}}, 'subneighborhoods': []}, {'id': 'TUxBQkJBUjcxNjha', 'name': 'Barrio Parque Gral San Martín', 'city': {'id': 'TUxBQ0dFTmVyYWxz', 'name': 'General San Martín'}, 'state': {'id': 'TUxBUEdSQWU4ZDkz', 'name': 'Bs.As. G.B.A. Norte'}, 'country': {'id': 'AR', 'name': 'Argentina'}, 'geo_information': {'location': {'latitude': -34.59426, 'longitude': -58.375378}}, 'subneighborhoods': []}, {'id': 'TUxBQkJJTDk0MzZa', 'name': 'Billinghurst', 'city': {'id': 'TUxBQ0dFTmVyYWxz', 'name': 'General San Martín'}, 'state': {'id': 'TUxBUEdSQWU4ZDkz', 'name': 'Bs.As. G.B.A. Norte'}, 'country': {'id': 'AR', 'name': 'Argentina'}, 'geo_information': {'location': {'latitude': -34.5736823, 'longitude': -58.5698374}}, 'subneighborhoods': []}, {'id': 'TUxBQkNJVTcxMDNa', 'name': 'Ciudad Jardín El Libertador', 'city': {'id': 'TUxBQ0dFTmVyYWxz', 'name': 'General San Martín'}, 'state': {'id': 'TUxBUEdSQWU4ZDkz', 'name': 'Bs.As. G.B.A. Norte'}, 'country': {'id': 'AR', 'name': 'Argentina'}, 'geo_information': {'location': {'latitude': -34.566667, 'longitude': -58.533333}}, 'subneighborhoods': []}, {'id': 'TVhYTG9tYSBIZXJtb3NhVFV4QlEwZEZUbVZ5W', 'name': 'Loma Hermosa', 'city': {'id': 'TUxBQ0dFTmVyYWxz', 'name': 'General San Martín'}, 'state': {'id': 'TUxBUEdSQWU4ZDkz', 'name': 'Bs.As. G.B.A. Norte'}, 'country': {'id': 'AR', 'name': 'Argentina'}, 'geo_information': {'location': {'latitude': -34.5605065, 'longitude': -58.56581}}, 'subneighborhoods': []}, {'id': 'TVhYU2FuIE1hcnTDrW4gQ2VudHJvVFV4QlEwZ', 'name': 'San Martín Centro', 'city': {'id': 'TUxBQ0dFTmVyYWxz', 'name': 'General San Martín'}, 'state': {'id': 'TUxBUEdSQWU4ZDkz', 'name': 'Bs.As. G.B.A. Norte'}, 'country': {'id': 'AR', 'name': 'Argentina'}, 'geo_information': {'location': {'latitude': -34.5605065, 'longitude': -58.56581}}, 'subneighborhoods': []}, {'id': 'TUxBQlZJTDU1ODZa', 'name': 'Villa Ayacucho', 'city': {'id': 'TUxBQ0dFTmVyYWxz', 'name': 'General San Martín'}, 'state': {'id': 'TUxBUEdSQWU4ZDkz', 'name': 'Bs.As. G.B.A. Norte'}, 'country': {'id': 'AR', 'name': 'Argentina'}, 'geo_information': {'location': {'latitude': -34.589436, 'longitude': -58.55503}}, 'subneighborhoods': []}, {'id': 'TUxBQlZJTDE0Nzha', 'name': 'Villa Ballester', 'city': {'id': 'TUxBQ0dFTmVyYWxz', 'name': 'General San Martín'}, 'state': {'id': 'TUxBUEdSQWU4ZDkz', 'name': 'Bs.As. G.B.A. Norte'}, 'country': {'id': 'AR', 'name': 'Argentina'}, 'geo_information': {'location': {'latitude': -34.5492357, 'longitude': -58.5588195}}, 'subneighborhoods': []}, {'id': 'TUxBQlZJTDY4OTZa', 'name': 'Villa Bernardo Monteagudo', 'city': {'id': 'TUxBQ0dFTmVyYWxz', 'name': 'General San Martín'}, 'state': {'id': 'TUxBUEdSQWU4ZDkz', 'name': 'Bs.As. G.B.A. Norte'}, 'country': {'id': 'AR', 'name': 'Argentina'}, 'geo_information': {'location': {'latitude': -34.5911, 'longitude': -58.5392}}, 'subneighborhoods': []}, {'id': 'TVhYVmlsbGEgQm9uaWNoVFV4QlEwZEZUbVZ5W', 'name': 'Villa Bonich', 'city': {'id': 'TUxBQ0dFTmVyYWxz', 'name': 'General San Martín'}, 'state': {'id': 'TUxBUEdSQWU4ZDkz', 'name': 'Bs.As. G.B.A. Norte'}, 'country': {'id': 'AR', 'name': 'Argentina'}, 'geo_information': {'location': {'latitude': -34.5767639, 'longitude': -58.5700171}}, 'subneighborhoods': []}, {'id': 'TUxBQlZJTDY1Mjha', 'name': 'Villa Chacabuco', 'city': {'id': 'TUxBQ0dFTmVyYWxz', 'name': 'General San Martín'}, 'state': {'id': 'TUxBUEdSQWU4ZDkz', 'name': 'Bs.As. G.B.A. Norte'}, 'country': {'id': 'AR', 'name': 'Argentina'}, 'geo_information': {'location': {'latitude': -34.591923, 'longitude': -58.533485}}, 'subneighborhoods': []}, {'id': 'TUxBQlZJTDYxNDha', 'name': 'Villa Coronel José M. Zapiola', 'city': {'id': 'TUxBQ0dFTmVyYWxz', 'name': 'General San Martín'}, 'state': {'id': 'TUxBUEdSQWU4ZDkz', 'name': 'Bs.As. G.B.A. Norte'}, 'country': {'id': 'AR', 'name': 'Argentina'}, 'geo_information': {'location': {'latitude': -34.5578, 'longitude': -58.5811}}, 'subneighborhoods': []}, {'id': 'TUxBQlZJTDI1NzRa', 'name': 'Villa General Antonio J. de Sucre', 'city': {'id': 'TUxBQ0dFTmVyYWxz', 'name': 'General San Martín'}, 'state': {'id': 'TUxBUEdSQWU4ZDkz', 'name': 'Bs.As. G.B.A. Norte'}, 'country': {'id': 'AR', 'name': 'Argentina'}, 'geo_information': {'location': {'latitude': -34.5447, 'longitude': -58.57}}, 'subneighborhoods': []}, {'id': 'TUxBQlZJTDY5NjZa', 'name': 'Villa General Eugenio Necochea', 'city': {'id': 'TUxBQ0dFTmVyYWxz', 'name': 'General San Martín'}, 'state': {'id': 'TUxBUEdSQWU4ZDkz', 'name': 'Bs.As. G.B.A. Norte'}, 'country': {'id': 'AR', 'name': 'Argentina'}, 'geo_information': {'location': {'latitude': -34.4989, 'longitude': -58.5894}}, 'subneighborhoods': []}, {'id': 'TUxBQlZJTDk4OTNa', 'name': 'Villa General José Tomás Guido', 'city': {'id': 'TUxBQ0dFTmVyYWxz', 'name': 'General San Martín'}, 'state': {'id': 'TUxBUEdSQWU4ZDkz', 'name': 'Bs.As. G.B.A. Norte'}, 'country': {'id': 'AR', 'name': 'Argentina'}, 'geo_information': {'location': {'latitude': -34.5542, 'longitude': -58.5647}}, 'subneighborhoods': []}, {'id': 'TUxBQlZJTDI4NzFa', 'name': 'Villa General Juan G. Las Heras', 'city': {'id': 'TUxBQ0dFTmVyYWxz', 'name': 'General San Martín'}, 'state': {'id': 'TUxBUEdSQWU4ZDkz', 'name': 'Bs.As. G.B.A. Norte'}, 'country': {'id': 'AR', 'name': 'Argentina'}, 'geo_information': {'location': {'latitude': -34.5606, 'longitude': -58.5564}}, 'subneighborhoods': []}, {'id': 'TUxBQlZJTDc5NTBa', 'name': 'Villa Godoy Cruz', 'city': {'id': 'TUxBQ0dFTmVyYWxz', 'name': 'General San Martín'}, 'state': {'id': 'TUxBUEdSQWU4ZDkz', 'name': 'Bs.As. G.B.A. Norte'}, 'country': {'id': 'AR', 'name': 'Argentina'}, 'geo_information': {'location': {'latitude': -34.60024, 'longitude': -58.51914}}, 'subneighborhoods': []}, {'id': 'TUxBQlZJTDMwMjFa', 'name': 'Villa Granaderos de San Martín', 'city': {'id': 'TUxBQ0dFTmVyYWxz', 'name': 'General San Martín'}, 'state': {'id': 'TUxBUEdSQWU4ZDkz', 'name': 'Bs.As. G.B.A. Norte'}, 'country': {'id': 'AR', 'name': 'Argentina'}, 'geo_information': {'location': {'latitude': -34.5759506, 'longitude': -58.5372696}}, 'subneighborhoods': []}, {'id': 'TUxBQlZJTDgxMzha', 'name': 'Villa Gregoria Matorras', 'city': {'id': 'TUxBQ0dFTmVyYWxz', 'name': 'General San Martín'}, 'state': {'id': 'TUxBUEdSQWU4ZDkz', 'name': 'Bs.As. G.B.A. Norte'}, 'country': {'id': 'AR', 'name': 'Argentina'}, 'geo_information': {'location': {'latitude': -34.5417, 'longitude': -58.5411}}, 'subneighborhoods': []}, {'id': 'TUxBQlZJTDQxNTla', 'name': 'Villa José León Suárez', 'city': {'id': 'TUxBQ0dFTmVyYWxz', 'name': 'General San Martín'}, 'state': {'id': 'TUxBUEdSQWU4ZDkz', 'name': 'Bs.As. G.B.A. Norte'}, 'country': {'id': 'AR', 'name': 'Argentina'}, 'geo_information': {'location': {'latitude': -34.529389, 'longitude': -58.5734048}}, 'subneighborhoods': []}, {'id': 'TUxBQlZJTDU2MDBa', 'name': 'Villa Juan Martín de Pueyrredón', 'city': {'id': 'TUxBQ0dFTmVyYWxz', 'name': 'General San Martín'}, 'state': {'id': 'TUxBUEdSQWU4ZDkz', 'name': 'Bs.As. G.B.A. Norte'}, 'country': {'id': 'AR', 'name': 'Argentina'}, 'geo_information': {'location': {'latitude': -34.574387, 'longitude': -58.565792}}, 'subneighborhoods': []}, {'id': 'TUxBQlZJTDQ0NTda', 'name': 'Villa Libertad', 'city': {'id': 'TUxBQ0dFTmVyYWxz', 'name': 'General San Martín'}, 'state': {'id': 'TUxBUEdSQWU4ZDkz', 'name': 'Bs.As. G.B.A. Norte'}, 'country': {'id': 'AR', 'name': 'Argentina'}, 'geo_information': {'location': {'latitude': -34.588654, 'longitude': -58.561695}}, 'subneighborhoods': []}, {'id': 'TUxBQlZJTDg5NDBa', 'name': 'Villa Lynch', 'city': {'id': 'TUxBQ0dFTmVyYWxz', 'name': 'General San Martín'}, 'state': {'id': 'TUxBUEdSQWU4ZDkz', 'name': 'Bs.As. G.B.A. Norte'}, 'country': {'id': 'AR', 'name': 'Argentina'}, 'geo_information': {'location': {'latitude': -34.587664, 'longitude': -58.5320001}}, 'subneighborhoods': []}, {'id': 'TUxBQlZJTDgxODha', 'name': 'Villa Maipú', 'city': {'id': 'TUxBQ0dFTmVyYWxz', 'name': 'General San Martín'}, 'state': {'id': 'TUxBUEdSQWU4ZDkz', 'name': 'Bs.As. G.B.A. Norte'}, 'country': {'id': 'AR', 'name': 'Argentina'}, 'geo_information': {'location': {'latitude': -34.5687326, 'longitude': -58.5202126}}, 'subneighborhoods': []}, {'id': 'TUxBQlZJTDE0MDZa', 'name': 'Villa Marqués Alejandro María de Aguado', 'city': {'id': 'TUxBQ0dFTmVyYWxz', 'name': 'General San Martín'}, 'state': {'id': 'TUxBUEdSQWU4ZDkz', 'name': 'Bs.As. G.B.A. Norte'}, 'country': {'id': 'AR', 'name': 'Argentina'}, 'geo_information': {'location': {'latitude': -34.56732, 'longitude': -58.555214}}, 'subneighborhoods': []}, {'id': 'TUxBQlZJTDQ3Mjda', 'name': 'Villa María Irene de los Remedios de Escalada', 'city': {'id': 'TUxBQ0dFTmVyYWxz', 'name': 'General San Martín'}, 'state': {'id': 'TUxBUEdSQWU4ZDkz', 'name': 'Bs.As. G.B.A. Norte'}, 'country': {'id': 'AR', 'name': 'Argentina'}, 'geo_information': {'location': {'latitude': -34.5644, 'longitude': -58.5922}}, 'subneighborhoods': []}, {'id': 'TUxBQlZJTDU5NjVa', 'name': 'Villa Parque Presidente Figueroa Alcorta', 'city': {'id': 'TUxBQ0dFTmVyYWxz', 'name': 'General San Martín'}, 'state': {'id': 'TUxBUEdSQWU4ZDkz', 'name': 'Bs.As. G.B.A. Norte'}, 'country': {'id': 'AR', 'name': 'Argentina'}, 'geo_information': {'location': {'latitude': -34.5928, 'longitude': -58.5314}}, 'subneighborhoods': []}, {'id': 'TUxBQlZJTDQxNTNa', 'name': 'Villa Parque San Lorenzo', 'city': {'id': 'TUxBQ0dFTmVyYWxz', 'name': 'General San Martín'}, 'state': {'id': 'TUxBUEdSQWU4ZDkz', 'name': 'Bs.As. G.B.A. Norte'}, 'country': {'id': 'AR', 'name': 'Argentina'}, 'geo_information': {'location': {'latitude': -34.567818, 'longitude': -58.55041}}, 'subneighborhoods': []}, {'id': 'TUxBQlZJTDM3NTFa', 'name': 'Villa San Andrés', 'city': {'id': 'TUxBQ0dFTmVyYWxz', 'name': 'General San Martín'}, 'state': {'id': 'TUxBUEdSQWU4ZDkz', 'name': 'Bs.As. G.B.A. Norte'}, 'country': {'id': 'AR', 'name': 'Argentina'}, 'geo_information': {'location': {'latitude': -34.5564986, 'longitude': -58.5361078}}, 'subneighborhoods': []}, {'id': 'TUxBQlZJTDE5NTla', 'name': 'Villa Yapeyú', 'city': {'id': 'TUxBQ0dFTmVyYWxz', 'name': 'General San Martín'}, 'state': {'id': 'TUxBUEdSQWU4ZDkz', 'name': 'Bs.As. G.B.A. Norte'}, 'country': {'id': 'AR', 'name': 'Argentina'}, 'geo_information': {'location': {'latitude': -34.577667, 'longitude': -58.533165}}, 'subneighborhoods': []}, {'id': 'TUxBQkJBUjQ5MjEzNQ', 'name': 'Barrio Parque Peró', 'city': {'id': 'TUxBQ0pPU2VjcGF6', 'name': 'José C. Paz'}, 'state': {'id': 'TUxBUEdSQWU4ZDkz', 'name': 'Bs.As. G.B.A. Norte'}, 'country': {'id': 'AR', 'name': 'Argentina'}, 'geo_information': {'location': {'latitude': -34.469814, 'longitude': -58.80358}}, 'subneighborhoods': []}, {'id': 'TUxBQkNPUjYwMTgxNw', 'name': 'Corral del Sol', 'city': {'id': 'TUxBQ0pPU2VjcGF6', 'name': 'José C. Paz'}, 'state': {'id': 'TUxBUEdSQWU4ZDkz', 'name': 'Bs.As. G.B.A. Norte'}, 'country': {'id': 'AR', 'name': 'Argentina'}, 'geo_information': {'location': {'latitude': -31.55, 'longitude': -58.75}}, 'subneighborhoods': []}, {'id': 'TUxBQkRFTDg5MzVa', 'name': 'Del Viso', 'city': {'id': 'TUxBQ0pPU2VjcGF6', 'name': 'José C. Paz'}, 'state': {'id': 'TUxBUEdSQWU4ZDkz', 'name': 'Bs.As. G.B.A. Norte'}, 'country': {'id': 'AR', 'name': 'Argentina'}, 'geo_information': {'location': {'latitude': -34.4792247, 'longitude': -58.799672}}, 'subneighborhoods': []}, {'id': 'TUxBQkdBTDcxOTczMA', 'name': 'Galápagos C.C', 'city': {'id': 'TUxBQ0pPU2VjcGF6', 'name': 'José C. Paz'}, 'state': {'id': 'TUxBUEdSQWU4ZDkz', 'name': 'Bs.As. G.B.A. Norte'}, 'country': {'id': 'AR', 'name': 'Argentina'}, 'geo_information': {'location': {'latitude': -34.435904, 'longitude': -58.766063}}, 'subneighborhoods': []}, {'id': 'TUxBQkdPTDg5Njc1MA', 'name': 'Golf Club Argentino', 'city': {'id': 'TUxBQ0pPU2VjcGF6', 'name': 'José C. Paz'}, 'state': {'id': 'TUxBUEdSQWU4ZDkz', 'name': 'Bs.As. G.B.A. Norte'}, 'country': {'id': 'AR', 'name': 'Argentina'}, 'geo_information': {'location': {'latitude': -34.4795, 'longitude': -58.795456}}, 'subneighborhoods': []}, {'id': 'TUxBQkpPUzE2MjZa', 'name': 'José C. Paz', 'city': {'id': 'TUxBQ0pPU2VjcGF6', 'name': 'José C. Paz'}, 'state': {'id': 'TUxBUEdSQWU4ZDkz', 'name': 'Bs.As. G.B.A. Norte'}, 'country': {'id': 'AR', 'name': 'Argentina'}, 'geo_information': {'location': {'latitude': -34.5151052, 'longitude': -58.7662461}}, 'subneighborhoods': []}, {'id': 'TUxBQlRPUjcyNTNa', 'name': 'Tortuguitas', 'city': {'id': 'TUxBQ0pPU2VjcGF6', 'name': 'José C. Paz'}, 'state': {'id': 'TUxBUEdSQWU4ZDkz', 'name': 'Bs.As. G.B.A. Norte'}, 'country': {'id': 'AR', 'name': 'Argentina'}, 'geo_information': {'location': {'latitude': -34.4959635, 'longitude': -58.7882658}}, 'subneighborhoods': []}, {'id': 'TVhYQmFycmlvIExvcyBQYXJhw61zb3NUVmhZV', 'name': 'Barrio Los Paraísos', 'city': {'id': 'TVhYTG9zIENhcmRhbGVzVFV4QlVFZFNRV1U0W', 'name': 'Los Cardales'}, 'state': {'id': 'TUxBUEdSQWU4ZDkz', 'name': 'Bs.As. G.B.A. Norte'}, 'country': {'id': 'AR', 'name': 'Argentina'}, 'geo_information': {'location': {'latitude': -34.3223876, 'longitude': -58.9786465}}, 'subneighborhoods': []}, {'id': 'TUxBQkFSRTQ1NTha', 'name': 'Area de Promoción El Triángulo', 'city': {'id': 'TUxBQ01BTHZpbmFz', 'name': 'Malvinas Argentinas'}, 'state': {'id': 'TUxBUEdSQWU4ZDkz', 'name': 'Bs.As. G.B.A. Norte'}, 'country': {'id': 'AR', 'name': 'Argentina'}, 'geo_information': {'location': {'latitude': -34.4546819, 'longitude': -58.706394}}, 'subneighborhoods': []}, {'id': 'TUxBQkFSRzkwODI5MQ', 'name': 'Argentino Golf Club', 'city': {'id': 'TUxBQ01BTHZpbmFz', 'name': 'Malvinas Argentinas'}, 'state': {'id': 'TUxBUEdSQWU4ZDkz', 'name': 'Bs.As. G.B.A. Norte'}, 'country': {'id': 'AR', 'name': 'Argentina'}, 'geo_information': {'location': {'latitude': -34.4795, 'longitude': -58.795456}}, 'subneighborhoods': []}, {'id': 'TUxBQkJBUjY5MDUxNw', 'name': 'Barrio Parque Pero', 'city': {'id': 'TUxBQ01BTHZpbmFz', 'name': 'Malvinas Argentinas'}, 'state': {'id': 'TUxBUEdSQWU4ZDkz', 'name': 'Bs.As. G.B.A. Norte'}, 'country': {'id': 'AR', 'name': 'Argentina'}, 'geo_information': {'location': {'latitude': -34.57601, 'longitude': -58.39989}}, 'subneighborhoods': []}, {'id': 'TUxBQkNVQjI2MTAyNg', 'name': 'CUBA', 'city': {'id': 'TUxBQ01BTHZpbmFz', 'name': 'Malvinas Argentinas'}, 'state': {'id': 'TUxBUEdSQWU4ZDkz', 'name': 'Bs.As. G.B.A. Norte'}, 'country': {'id': 'AR', 'name': 'Argentina'}, 'geo_information': {'location': {'latitude': -34.50718, 'longitude': -58.68563}}, 'subneighborhoods': []}, {'id': 'TUxBQkNVQjM5NjgyOA', 'name': 'Cuba Country Villa de Mayo', 'city': {'id': 'TUxBQ01BTHZpbmFz', 'name': 'Malvinas Argentinas'}, 'state': {'id': 'TUxBUEdSQWU4ZDkz', 'name': 'Bs.As. G.B.A. Norte'}, 'country': {'id': 'AR', 'name': 'Argentina'}, 'geo_information': {'location': {'latitude': -34.50718, 'longitude': -58.68563}}, 'subneighborhoods': []}, {'id': 'TUxBQkVMRjUxMDM2MA', 'name': 'El Florido Barrio Parque', 'city': {'id': 'TUxBQ01BTHZpbmFz', 'name': 'Malvinas Argentinas'}, 'state': {'id': 'TUxBUEdSQWU4ZDkz', 'name': 'Bs.As. G.B.A. Norte'}, 'country': {'id': 'AR', 'name': 'Argentina'}, 'geo_information': {'location': {'latitude': -34.4949232, 'longitude': -58.6928386}}, 'subneighborhoods': []}, {'id': 'TUxBQkdSQTMyNTla', 'name': 'Grand Bourg', 'city': {'id': 'TUxBQ01BTHZpbmFz', 'name': 'Malvinas Argentinas'}, 'state': {'id': 'TUxBUEdSQWU4ZDkz', 'name': 'Bs.As. G.B.A. Norte'}, 'country': {'id': 'AR', 'name': 'Argentina'}, 'geo_information': {'location': {'latitude': -34.4865685, 'longitude': -58.7290039}}, 'subneighborhoods': []}, {'id': 'TUxBQklORzYyODFa', 'name': 'Ingeniero Adolfo Sourdeaux', 'city': {'id': 'TUxBQ01BTHZpbmFz', 'name': 'Malvinas Argentinas'}, 'state': {'id': 'TUxBUEdSQWU4ZDkz', 'name': 'Bs.As. G.B.A. Norte'}, 'country': {'id': 'AR', 'name': 'Argentina'}, 'geo_information': {'location': {'latitude': -34.50126, 'longitude': -58.6601456}}, 'subneighborhoods': []}, {'id': 'TUxBQklORzYyNDNa', 'name': 'Ingeniero Pablo Nogués', 'city': {'id': 'TUxBQ01BTHZpbmFz', 'name': 'Malvinas Argentinas'}, 'state': {'id': 'TUxBUEdSQWU4ZDkz', 'name': 'Bs.As. G.B.A. Norte'}, 'country': {'id': 'AR', 'name': 'Argentina'}, 'geo_information': {'location': {'latitude': -34.4785687, 'longitude': -58.7057233}}, 'subneighborhoods': []}, {'id': 'TUxBQkxBUzM2NTQwOA', 'name': 'Las Beatrices', 'city': {'id': 'TUxBQ01BTHZpbmFz', 'name': 'Malvinas Argentinas'}, 'state': {'id': 'TUxBUEdSQWU4ZDkz', 'name': 'Bs.As. G.B.A. Norte'}, 'country': {'id': 'AR', 'name': 'Argentina'}, 'geo_information': {'location': {'latitude': -34.515358, 'longitude': -58.69205}}, 'subneighborhoods': []}, {'id': 'TUxBQkxBUzc4Nzc2NA', 'name': 'Las Magnolias', 'city': {'id': 'TUxBQ01BTHZpbmFz', 'name': 'Malvinas Argentinas'}, 'state': {'id': 'TUxBUEdSQWU4ZDkz', 'name': 'Bs.As. G.B.A. Norte'}, 'country': {'id': 'AR', 'name': 'Argentina'}, 'geo_information': {'location': {'latitude': -34.82101, 'longitude': -58.4317}}, 'subneighborhoods': []}, {'id': 'TUxBQkxPUzE4ODM4OA', 'name': 'Los Abedules', 'city': {'id': 'TUxBQ01BTHZpbmFz', 'name': 'Malvinas Argentinas'}, 'state': {'id': 'TUxBUEdSQWU4ZDkz', 'name': 'Bs.As. G.B.A. Norte'}, 'country': {'id': 'AR', 'name': 'Argentina'}, 'geo_information': {'location': {'latitude': -34.47357, 'longitude': -58.71097}}, 'subneighborhoods': []}, {'id': 'TUxBQkxPUzk1Njk3Ng', 'name': 'Los Abedules I', 'city': {'id': 'TUxBQ01BTHZpbmFz', 'name': 'Malvinas Argentinas'}, 'state': {'id': 'TUxBUEdSQWU4ZDkz', 'name': 'Bs.As. G.B.A. Norte'}, 'country': {'id': 'AR', 'name': 'Argentina'}, 'geo_information': {'location': {'latitude': -34.47357, 'longitude': -58.71097}}, 'subneighborhoods': []}, {'id': 'TUxBQkxPUzEzMDg3MQ', 'name': 'Los Abedules II', 'city': {'id': 'TUxBQ01BTHZpbmFz', 'name': 'Malvinas Argentinas'}, 'state': {'id': 'TUxBUEdSQWU4ZDkz', 'name': 'Bs.As. G.B.A. Norte'}, 'country': {'id': 'AR', 'name': 'Argentina'}, 'geo_information': {'location': {'latitude': -34.420896, 'longitude': -58.703868}}, 'subneighborhoods': []}, {'id': 'TUxBQkxPUzYxMjM2Ng', 'name': 'Los Olivares', 'city': {'id': 'TUxBQ01BTHZpbmFz', 'name': 'Malvinas Argentinas'}, 'state': {'id': 'TUxBUEdSQWU4ZDkz', 'name': 'Bs.As. G.B.A. Norte'}, 'country': {'id': 'AR', 'name': 'Argentina'}, 'geo_information': {'location': {'latitude': -34.47583, 'longitude': -58.71376}}, 'subneighborhoods': []}, {'id': 'TUxBQkxPUzc0MTVa', 'name': 'Los Polvorines', 'city': {'id': 'TUxBQ01BTHZpbmFz', 'name': 'Malvinas Argentinas'}, 'state': {'id': 'TUxBUEdSQWU4ZDkz', 'name': 'Bs.As. G.B.A. Norte'}, 'country': {'id': 'AR', 'name': 'Argentina'}, 'geo_information': {'location': {'latitude': -34.5067101, 'longitude': -58.7059135}}, 'subneighborhoods': []}, {'id': 'TUxBQk1BTDQ3MjFa', 'name': 'Malvinas Argentinas', 'city': {'id': 'TUxBQ01BTHZpbmFz', 'name': 'Malvinas Argentinas'}, 'state': {'id': 'TUxBUEdSQWU4ZDkz', 'name': 'Bs.As. G.B.A. Norte'}, 'country': {'id': 'AR', 'name': 'Argentina'}, 'geo_information': {'location': {'latitude': -34.529552, 'longitude': -58.699776}}, 'subneighborhoods': []}, {'id': 'TUxBQk9MSTI3Njg5Mw', 'name': 'Olivos Golf Club', 'city': {'id': 'TUxBQ01BTHZpbmFz', 'name': 'Malvinas Argentinas'}, 'state': {'id': 'TUxBUEdSQWU4ZDkz', 'name': 'Bs.As. G.B.A. Norte'}, 'country': {'id': 'AR', 'name': 'Argentina'}, 'geo_information': {'location': {'latitude': -34.464733, 'longitude': -58.69946}}, 'subneighborhoods': []}, {'id': 'TUxBQlNBTjY4OTM2MQ', 'name': 'San Carlos', 'city': {'id': 'TUxBQ01BTHZpbmFz', 'name': 'Malvinas Argentinas'}, 'state': {'id': 'TUxBUEdSQWU4ZDkz', 'name': 'Bs.As. G.B.A. Norte'}, 'country': {'id': 'AR', 'name': 'Argentina'}, 'geo_information': {'location': {'latitude': -34.47321, 'longitude': -58.68466}}, 'subneighborhoods': []}, {'id': 'TUxBQlNBTjMxNjI3Ng', 'name': 'San Jorge Village', 'city': {'id': 'TUxBQ01BTHZpbmFz', 'name': 'Malvinas Argentinas'}, 'state': {'id': 'TUxBUEdSQWU4ZDkz', 'name': 'Bs.As. G.B.A. Norte'}, 'country': {'id': 'AR', 'name': 'Argentina'}, 'geo_information': {'location': {'latitude': -34.488464, 'longitude': -58.677803}}, 'subneighborhoods': []}, {'id': 'TUxBQlNBTjIwOTI4NA', 'name': 'Santa María de los Olivos', 'city': {'id': 'TUxBQ01BTHZpbmFz', 'name': 'Malvinas Argentinas'}, 'state': {'id': 'TUxBUEdSQWU4ZDkz', 'name': 'Bs.As. G.B.A. Norte'}, 'country': {'id': 'AR', 'name': 'Argentina'}, 'geo_information': {'location': {'latitude': -34.47214, 'longitude': -58.71377}}, 'subneighborhoods': []}, {'id': 'TVhYVG9ydHVndWl0YXNUVXhCUTAxQlRIWnBib', 'name': 'Tortuguitas', 'city': {'id': 'TUxBQ01BTHZpbmFz', 'name': 'Malvinas Argentinas'}, 'state': {'id': 'TUxBUEdSQWU4ZDkz', 'name': 'Bs.As. G.B.A. Norte'}, 'country': {'id': 'AR', 'name': 'Argentina'}, 'geo_information': {'location': {'latitude': -34.45109, 'longitude': -58.72543}}, 'subneighborhoods': []}, {'id': 'TUxBQlRPVTIzMzc2OQ', 'name': 'Touring', 'city': {'id': 'TUxBQ01BTHZpbmFz', 'name': 'Malvinas Argentinas'}, 'state': {'id': 'TUxBUEdSQWU4ZDkz', 'name': 'Bs.As. G.B.A. Norte'}, 'country': {'id': 'AR', 'name': 'Argentina'}, 'geo_information': {'location': {'latitude': -34.49476, 'longitude': -58.752842}}, 'subneighborhoods': []}, {'id': 'TUxBQlZJTDM3MDBa', 'name': 'Villa de Mayo', 'city': {'id': 'TUxBQ01BTHZpbmFz', 'name': 'Malvinas Argentinas'}, 'state': {'id': 'TUxBUEdSQWU4ZDkz', 'name': 'Bs.As. G.B.A. Norte'}, 'country': {'id': 'AR', 'name': 'Argentina'}, 'geo_information': {'location': {'latitude': -34.5088157, 'longitude': -58.6794491}}, 'subneighborhoods': []}, {'id': 'TVhYNDYgUGxhemFUVXhCUTFCSlRHRnlNVEl6', 'name': '46 Plaza', 'city': {'id': 'TUxBQ1BJTGFyMTIz', 'name': 'Pilar'}, 'state': {'id': 'TUxBUEdSQWU4ZDkz', 'name': 'Bs.As. G.B.A. Norte'}, 'country': {'id': 'AR', 'name': 'Argentina'}, 'geo_information': {'location': {'latitude': -34.4646213, 'longitude': -58.8977058}}, 'subneighborhoods': []}, {'id': 'TUxBQkFHTzg2NTMwNw', 'name': 'Agosto', 'city': {'id': 'TUxBQ1BJTGFyMTIz', 'name': 'Pilar'}, 'state': {'id': 'TUxBUEdSQWU4ZDkz', 'name': 'Bs.As. G.B.A. Norte'}, 'country': {'id': 'AR', 'name': 'Argentina'}, 'geo_information': {'location': {'latitude': -34.439056, 'longitude': -58.797226}}, 'subneighborhoods': []}, {'id': 'TUxBQkFMVDE5Mzg0NA', 'name': 'Alto del Molino', 'city': {'id': 'TUxBQ1BJTGFyMTIz', 'name': 'Pilar'}, 'state': {'id': 'TUxBUEdSQWU4ZDkz', 'name': 'Bs.As. G.B.A. Norte'}, 'country': {'id': 'AR', 'name': 'Argentina'}, 'geo_information': {'location': {'latitude': -34.43137, 'longitude': -58.84101}}, 'subneighborhoods': []}, {'id': 'TVhYQWx0b3MgZGUgQ2FtcG9UVXhCUTFCSlRHR', 'name': 'Altos de Campo', 'city': {'id': 'TUxBQ1BJTGFyMTIz', 'name': 'Pilar'}, 'state': {'id': 'TUxBUEdSQWU4ZDkz', 'name': 'Bs.As. G.B.A. Norte'}, 'country': {'id': 'AR', 'name': 'Argentina'}, 'geo_information': {'location': {'latitude': -34.4646213, 'longitude': -58.8977058}}, 'subneighborhoods': []}, {'id': 'TVhYQWx0b3MgZGUgQ2FtcG8gR3JhbmRlVFV4Q', 'name': 'Altos de Campo Grande', 'city': {'id': 'TUxBQ1BJTGFyMTIz', 'name': 'Pilar'}, 'state': {'id': 'TUxBUEdSQWU4ZDkz', 'name': 'Bs.As. G.B.A. Norte'}, 'country': {'id': 'AR', 'name': 'Argentina'}, 'geo_information': {'location': {'latitude': -34.4646213, 'longitude': -58.8977058}}, 'subneighborhoods': []}, {'id': 'TUxBQkFMVDU0MzkzMw', 'name': 'Altos de Manzanares', 'city': {'id': 'TUxBQ1BJTGFyMTIz', 'name': 'Pilar'}, 'state': {'id': 'TUxBUEdSQWU4ZDkz', 'name': 'Bs.As. G.B.A. Norte'}, 'country': {'id': 'AR', 'name': 'Argentina'}, 'geo_information': {'location': {'latitude': -34.448673, 'longitude': -58.995583}}, 'subneighborhoods': []}, {'id': 'TUxBQkFMVDI1MDAxNg', 'name': 'Altos del Barranco', 'city': {'id': 'TUxBQ1BJTGFyMTIz', 'name': 'Pilar'}, 'state': {'id': 'TUxBUEdSQWU4ZDkz', 'name': 'Bs.As. G.B.A. Norte'}, 'country': {'id': 'AR', 'name': 'Argentina'}, 'geo_information': {'location': {'latitude': -34.449024, 'longitude': -58.758495}}, 'subneighborhoods': []}, {'id': 'TUxBQkFMVDY0ODA4OA', 'name': 'Altos del Golf', 'city': {'id': 'TUxBQ1BJTGFyMTIz', 'name': 'Pilar'}, 'state': {'id': 'TUxBUEdSQWU4ZDkz', 'name': 'Bs.As. G.B.A. Norte'}, 'country': {'id': 'AR', 'name': 'Argentina'}, 'geo_information': {'location': {'latitude': -34.465942, 'longitude': -58.82698}}, 'subneighborhoods': []}, {'id': 'TUxBQkFMVDM2MzI2MA', 'name': 'Altos del Golf Aranjuez', 'city': {'id': 'TUxBQ1BJTGFyMTIz', 'name': 'Pilar'}, 'state': {'id': 'TUxBUEdSQWU4ZDkz', 'name': 'Bs.As. G.B.A. Norte'}, 'country': {'id': 'AR', 'name': 'Argentina'}, 'geo_information': {'location': {'latitude': -34.3731709, 'longitude': -58.7709895}}, 'subneighborhoods': []}, {'id': 'TUxBQkFMVDk5MjI1Mw', 'name': 'Altos del Pilar', 'city': {'id': 'TUxBQ1BJTGFyMTIz', 'name': 'Pilar'}, 'state': {'id': 'TUxBUEdSQWU4ZDkz', 'name': 'Bs.As. G.B.A. Norte'}, 'country': {'id': 'AR', 'name': 'Argentina'}, 'geo_information': {'location': {'latitude': -34.45587, 'longitude': -58.863956}}, 'subneighborhoods': []}, {'id': 'TUxBQkFMVDI2MDIzMA', 'name': 'Altos del Trebolar', 'city': {'id': 'TUxBQ1BJTGFyMTIz', 'name': 'Pilar'}, 'state': {'id': 'TUxBUEdSQWU4ZDkz', 'name': 'Bs.As. G.B.A. Norte'}, 'country': {'id': 'AR', 'name': 'Argentina'}, 'geo_information': {'location': {'latitude': -34.43804, 'longitude': -58.80385}}, 'subneighborhoods': []}, {'id': 'TUxBQkFQQTI0Mzg2NA', 'name': 'Apart del Pinazo', 'city': {'id': 'TUxBQ1BJTGFyMTIz', 'name': 'Pilar'}, 'state': {'id': 'TUxBUEdSQWU4ZDkz', 'name': 'Bs.As. G.B.A. Norte'}, 'country': {'id': 'AR', 'name': 'Argentina'}, 'geo_information': {'location': {'latitude': -34.43353, 'longitude': -58.832047}}, 'subneighborhoods': []}, {'id': 'TUxBQkFSQzU4NDMxNQ', 'name': 'Arcos del Pilar', 'city': {'id': 'TUxBQ1BJTGFyMTIz', 'name': 'Pilar'}, 'state': {'id': 'TUxBUEdSQWU4ZDkz', 'name': 'Bs.As. G.B.A. Norte'}, 'country': {'id': 'AR', 'name': 'Argentina'}, 'geo_information': {'location': {'latitude': -34.46047, 'longitude': -58.918056}}, 'subneighborhoods': []}, {'id': 'TVhYQXJnZW50aW5vIEdvbGYgQ2x1YlRVeEJRM', 'name': 'Argentino Golf Club', 'city': {'id': 'TUxBQ1BJTGFyMTIz', 'name': 'Pilar'}, 'state': {'id': 'TUxBUEdSQWU4ZDkz', 'name': 'Bs.As. G.B.A. Norte'}, 'country': {'id': 'AR', 'name': 'Argentina'}, 'geo_information': {'location': {'latitude': -34.4646213, 'longitude': -58.8977058}}, 'subneighborhoods': []}, {'id': 'TUxBQkFSTTQ2MjA0OA', 'name': 'Armenia', 'city': {'id': 'TUxBQ1BJTGFyMTIz', 'name': 'Pilar'}, 'state': {'id': 'TUxBUEdSQWU4ZDkz', 'name': 'Bs.As. G.B.A. Norte'}, 'country': {'id': 'AR', 'name': 'Argentina'}, 'geo_information': {'location': {'latitude': -34.426487, 'longitude': -58.797573}}, 'subneighborhoods': []}, {'id': 'TVhYQXN0b24gVmlsbGFnZVRVeEJRMUJKVEdGe', 'name': 'Aston Village', 'city': {'id': 'TUxBQ1BJTGFyMTIz', 'name': 'Pilar'}, 'state': {'id': 'TUxBUEdSQWU4ZDkz', 'name': 'Bs.As. G.B.A. Norte'}, 'country': {'id': 'AR', 'name': 'Argentina'}, 'geo_information': {'location': {'latitude': -34.4300641, 'longitude': -58.8827218}}, 'subneighborhoods': []}, {'id': 'TUxBQkFUTDUxNDU2MQ', 'name': 'Atlético Pilar', 'city': {'id': 'TUxBQ1BJTGFyMTIz', 'name': 'Pilar'}, 'state': {'id': 'TUxBUEdSQWU4ZDkz', 'name': 'Bs.As. G.B.A. Norte'}, 'country': {'id': 'AR', 'name': 'Argentina'}, 'geo_information': {'location': {'latitude': -34.455, 'longitude': -58.888584}}, 'subneighborhoods': []}, {'id': 'TUxBQkFVRzE2MjExMQ', 'name': 'Augusta', 'city': {'id': 'TUxBQ1BJTGFyMTIz', 'name': 'Pilar'}, 'state': {'id': 'TUxBUEdSQWU4ZDkz', 'name': 'Bs.As. G.B.A. Norte'}, 'country': {'id': 'AR', 'name': 'Argentina'}, 'geo_information': {'location': {'latitude': -34.443982, 'longitude': -58.8722977}}, 'subneighborhoods': []}, {'id': 'TVhYQXlyZXMgTG9mdFRVeEJRMUJKVEdGeU1US', 'name': 'Ayres Loft', 'city': {'id': 'TUxBQ1BJTGFyMTIz', 'name': 'Pilar'}, 'state': {'id': 'TUxBUEdSQWU4ZDkz', 'name': 'Bs.As. G.B.A. Norte'}, 'country': {'id': 'AR', 'name': 'Argentina'}, 'geo_information': {'location': {'latitude': -34.4352267, 'longitude': -58.7944467}}, 'subneighborhoods': []}, {'id': 'TVhYQXlyZXMgUGxhemFUVXhCUTFCSlRHRnlNV', 'name': 'Ayres Plaza', 'city': {'id': 'TUxBQ1BJTGFyMTIz', 'name': 'Pilar'}, 'state': {'id': 'TUxBUEdSQWU4ZDkz', 'name': 'Bs.As. G.B.A. Norte'}, 'country': {'id': 'AR', 'name': 'Argentina'}, 'geo_information': {'location': {'latitude': -34.438309, 'longitude': -58.837283}}, 'subneighborhoods': []}, {'id': 'TUxBQkFZUjI0NzY2Ng', 'name': 'Ayres del Pilar', 'city': {'id': 'TUxBQ1BJTGFyMTIz', 'name': 'Pilar'}, 'state': {'id': 'TUxBUEdSQWU4ZDkz', 'name': 'Bs.As. G.B.A. Norte'}, 'country': {'id': 'AR', 'name': 'Argentina'}, 'geo_information': {'location': {'latitude': -34.436417, 'longitude': -58.80077}}, 'subneighborhoods': []}, {'id': 'TUxBQkJBUjEzOTcxNQ', 'name': 'Barrio Nuevo Pilar', 'city': {'id': 'TUxBQ1BJTGFyMTIz', 'name': 'Pilar'}, 'state': {'id': 'TUxBUEdSQWU4ZDkz', 'name': 'Bs.As. G.B.A. Norte'}, 'country': {'id': 'AR', 'name': 'Argentina'}, 'geo_information': {'location': {'latitude': -34.459217, 'longitude': -58.967346}}, 'subneighborhoods': []}, {'id': 'TUxBQkJBUjY0ODI2Ng', 'name': 'Barrio Parque del Viso', 'city': {'id': 'TUxBQ1BJTGFyMTIz', 'name': 'Pilar'}, 'state': {'id': 'TUxBUEdSQWU4ZDkz', 'name': 'Bs.As. G.B.A. Norte'}, 'country': {'id': 'AR', 'name': 'Argentina'}, 'geo_information': {'location': {'latitude': -34.610172, 'longitude': -58.38826}}, 'subneighborhoods': []}, {'id': 'TUxBQkJBUjY4MDUxNQ', 'name': 'Barrio San Antonio', 'city': {'id': 'TUxBQ1BJTGFyMTIz', 'name': 'Pilar'}, 'state': {'id': 'TUxBUEdSQWU4ZDkz', 'name': 'Bs.As. G.B.A. Norte'}, 'country': {'id': 'AR', 'name': 'Argentina'}, 'geo_information': {'location': {'latitude': -34.442917, 'longitude': -58.972828}}, 'subneighborhoods': []}, {'id': 'TUxBQkJFUjExOTEwNw', 'name': 'Bermudas', 'city': {'id': 'TUxBQ1BJTGFyMTIz', 'name': 'Pilar'}, 'state': {'id': 'TUxBUEdSQWU4ZDkz', 'name': 'Bs.As. G.B.A. Norte'}, 'country': {'id': 'AR', 'name': 'Argentina'}, 'geo_information': {'location': {'latitude': -34.453087, 'longitude': -58.91007}}, 'subneighborhoods': []}, {'id': 'TUxBQkJPQzg0MTE3Mw', 'name': 'Boca Raton', 'city': {'id': 'TUxBQ1BJTGFyMTIz', 'name': 'Pilar'}, 'state': {'id': 'TUxBUEdSQWU4ZDkz', 'name': 'Bs.As. G.B.A. Norte'}, 'country': {'id': 'AR', 'name': 'Argentina'}, 'geo_information': {'location': {'latitude': -34.54582, 'longitude': -58.859406}}, 'subneighborhoods': []}, {'id': 'TUxBQkJPUzI1MDM0MQ', 'name': 'Bosque Chico', 'city': {'id': 'TUxBQ1BJTGFyMTIz', 'name': 'Pilar'}, 'state': {'id': 'TUxBUEdSQWU4ZDkz', 'name': 'Bs.As. G.B.A. Norte'}, 'country': {'id': 'AR', 'name': 'Argentina'}, 'geo_information': {'location': {'latitude': -34.43755, 'longitude': -58.737644}}, 'subneighborhoods': []}, {'id': 'Qm91bGV2YXJkIGRlbCBTb2xUVXhCUTFCSlRHRnlN', 'name': 'Boulevard del Sol', 'city': {'id': 'TUxBQ1BJTGFyMTIz', 'name': 'Pilar'}, 'state': {'id': 'TUxBUEdSQWU4ZDkz', 'name': 'Bs.As. G.B.A. Norte'}, 'country': {'id': 'AR', 'name': 'Argentina'}, 'geo_information': {'location': {'latitude': -34.426674, 'longitude': -58.836586}}, 'subneighborhoods': []}, {'id': 'TUxBQkJPVTEzMjgzOQ', 'name': 'Boulevares', 'city': {'id': 'TUxBQ1BJTGFyMTIz', 'name': 'Pilar'}, 'state': {'id': 'TUxBUEdSQWU4ZDkz', 'name': 'Bs.As. G.B.A. Norte'}, 'country': {'id': 'AR', 'name': 'Argentina'}, 'geo_information': {'location': {'latitude': -34.442703, 'longitude': -58.82467}}, 'subneighborhoods': []}, {'id': 'TVhYQm91cXVldFRVeEJRMUJKVEdGeU1USXo', 'name': 'Bouquet', 'city': {'id': 'TUxBQ1BJTGFyMTIz', 'name': 'Pilar'}, 'state': {'id': 'TUxBUEdSQWU4ZDkz', 'name': 'Bs.As. G.B.A. Norte'}, 'country': {'id': 'AR', 'name': 'Argentina'}, 'geo_information': {'location': {'latitude': -34.4358978, 'longitude': -58.775875}}, 'subneighborhoods': []}, {'id': 'TUxBQkJSVTcyMzA5NQ', 'name': 'Brujas', 'city': {'id': 'TUxBQ1BJTGFyMTIz', 'name': 'Pilar'}, 'state': {'id': 'TUxBUEdSQWU4ZDkz', 'name': 'Bs.As. G.B.A. Norte'}, 'country': {'id': 'AR', 'name': 'Argentina'}, 'geo_information': {'location': {'latitude': -34.46144, 'longitude': -58.911823}}, 'subneighborhoods': []}, {'id': 'TUxBQkJVRTU3ODkzMQ', 'name': 'Buen Retiro', 'city': {'id': 'TUxBQ1BJTGFyMTIz', 'name': 'Pilar'}, 'state': {'id': 'TUxBUEdSQWU4ZDkz', 'name': 'Bs.As. G.B.A. Norte'}, 'country': {'id': 'AR', 'name': 'Argentina'}, 'geo_information': {'location': {'latitude': -34.58484, 'longitude': -58.43321}}, 'subneighborhoods': []}, {'id': 'TUxBQkNVQjE2NTgxNA', 'name': 'CUBA Fátima', 'city': {'id': 'TUxBQ1BJTGFyMTIz', 'name': 'Pilar'}, 'state': {'id': 'TUxBUEdSQWU4ZDkz', 'name': 'Bs.As. G.B.A. Norte'}, 'country': {'id': 'AR', 'name': 'Argentina'}, 'geo_information': {'location': {'latitude': -34.43061, 'longitude': -58.983006}}, 'subneighborhoods': []}, {'id': 'TUxBQkNBTDI3NDMxMw', 'name': 'California Village', 'city': {'id': 'TUxBQ1BJTGFyMTIz', 'name': 'Pilar'}, 'state': {'id': 'TUxBUEdSQWU4ZDkz', 'name': 'Bs.As. G.B.A. Norte'}, 'country': {'id': 'AR', 'name': 'Argentina'}, 'geo_information': {'location': {'latitude': -34.441895, 'longitude': -58.872326}}, 'subneighborhoods': []}, {'id': 'TUxBQkNBTTQ2MTA0NQ', 'name': 'Campo Argentino de Golf', 'city': {'id': 'TUxBQ1BJTGFyMTIz', 'name': 'Pilar'}, 'state': {'id': 'TUxBUEdSQWU4ZDkz', 'name': 'Bs.As. G.B.A. Norte'}, 'country': {'id': 'AR', 'name': 'Argentina'}, 'geo_information': {'location': {'latitude': -34.4795, 'longitude': -58.795456}}, 'subneighborhoods': []}, {'id': 'TUxBQkNBTTQxNDk4NA', 'name': 'Campo Chico', 'city': {'id': 'TUxBQ1BJTGFyMTIz', 'name': 'Pilar'}, 'state': {'id': 'TUxBUEdSQWU4ZDkz', 'name': 'Bs.As. G.B.A. Norte'}, 'country': {'id': 'AR', 'name': 'Argentina'}, 'geo_information': {'location': {'latitude': -34.415565, 'longitude': -58.825733}}, 'subneighborhoods': []}, {'id': 'TUxBQkNBTTgxMjc0OQ', 'name': 'Campo Grande', 'city': {'id': 'TUxBQ1BJTGFyMTIz', 'name': 'Pilar'}, 'state': {'id': 'TUxBUEdSQWU4ZDkz', 'name': 'Bs.As. G.B.A. Norte'}, 'country': {'id': 'AR', 'name': 'Argentina'}, 'geo_information': {'location': {'latitude': -34.414818, 'longitude': -58.826866}}, 'subneighborhoods': []}, {'id': 'TVhYQ2FtcHVzIFZpc3RhVFV4QlExQkpUR0Z5T', 'name': 'Campus Vista', 'city': {'id': 'TUxBQ1BJTGFyMTIz', 'name': 'Pilar'}, 'state': {'id': 'TUxBUEdSQWU4ZDkz', 'name': 'Bs.As. G.B.A. Norte'}, 'country': {'id': 'AR', 'name': 'Argentina'}, 'geo_information': {'location': {'latitude': -34.4612523, 'longitude': -58.8545795}}, 'subneighborhoods': []}, {'id': 'TUxBQkNBUjM0NjEzNw', 'name': 'Carmel', 'city': {'id': 'TUxBQ1BJTGFyMTIz', 'name': 'Pilar'}, 'state': {'id': 'TUxBUEdSQWU4ZDkz', 'name': 'Bs.As. G.B.A. Norte'}, 'country': {'id': 'AR', 'name': 'Argentina'}, 'geo_information': {'location': {'latitude': -34.440815, 'longitude': -58.935753}}, 'subneighborhoods': []}, {'id': 'TUxBQkNBUzM0OTE3OQ', 'name': 'Casablanca', 'city': {'id': 'TUxBQ1BJTGFyMTIz', 'name': 'Pilar'}, 'state': {'id': 'TUxBUEdSQWU4ZDkz', 'name': 'Bs.As. G.B.A. Norte'}, 'country': {'id': 'AR', 'name': 'Argentina'}, 'geo_information': {'location': {'latitude': -34.502132, 'longitude': -58.885826}}, 'subneighborhoods': []}, {'id': 'TUxBQkNBUzI3NjE0Nw', 'name': 'Casas del Alto', 'city': {'id': 'TUxBQ1BJTGFyMTIz', 'name': 'Pilar'}, 'state': {'id': 'TUxBUEdSQWU4ZDkz', 'name': 'Bs.As. G.B.A. Norte'}, 'country': {'id': 'AR', 'name': 'Argentina'}, 'geo_information': {'location': {'latitude': -34.44413, 'longitude': -58.976673}}, 'subneighborhoods': []}, {'id': 'TUxBQkNBUzM3NjA0Ng', 'name': 'Casas del Bosque', 'city': {'id': 'TUxBQ1BJTGFyMTIz', 'name': 'Pilar'}, 'state': {'id': 'TUxBUEdSQWU4ZDkz', 'name': 'Bs.As. G.B.A. Norte'}, 'country': {'id': 'AR', 'name': 'Argentina'}, 'geo_information': {'location': {'latitude': -34.4556253, 'longitude': -58.8352221}}, 'subneighborhoods': []}, {'id': 'TUxBQkNBUzU3MzI0Ng', 'name': 'Casas del Prado', 'city': {'id': 'TUxBQ1BJTGFyMTIz', 'name': 'Pilar'}, 'state': {'id': 'TUxBUEdSQWU4ZDkz', 'name': 'Bs.As. G.B.A. Norte'}, 'country': {'id': 'AR', 'name': 'Argentina'}, 'geo_information': {'location': {'latitude': -34.4450279, 'longitude': -58.8338533}}, 'subneighborhoods': []}, {'id': 'TUxBQkNBUzE0NTc1Ng', 'name': 'Casuarinas del Pilar', 'city': {'id': 'TUxBQ1BJTGFyMTIz', 'name': 'Pilar'}, 'state': {'id': 'TUxBUEdSQWU4ZDkz', 'name': 'Bs.As. G.B.A. Norte'}, 'country': {'id': 'AR', 'name': 'Argentina'}, 'geo_information': {'location': {'latitude': -34.392315, 'longitude': -58.875385}}, 'subneighborhoods': []}, {'id': 'TUxBQkNIQTY0MDMyMA', 'name': 'Chacras de Murray', 'city': {'id': 'TUxBQ1BJTGFyMTIz', 'name': 'Pilar'}, 'state': {'id': 'TUxBUEdSQWU4ZDkz', 'name': 'Bs.As. G.B.A. Norte'}, 'country': {'id': 'AR', 'name': 'Argentina'}, 'geo_information': {'location': {'latitude': -34.513935, 'longitude': -58.92444}}, 'subneighborhoods': []}, {'id': 'TUxBQkNIQTIzMTc5OQ', 'name': 'Chacras del Pilar', 'city': {'id': 'TUxBQ1BJTGFyMTIz', 'name': 'Pilar'}, 'state': {'id': 'TUxBUEdSQWU4ZDkz', 'name': 'Bs.As. G.B.A. Norte'}, 'country': {'id': 'AR', 'name': 'Argentina'}, 'geo_information': {'location': {'latitude': -34.509766, 'longitude': -58.9409}}, 'subneighborhoods': []}, {'id': 'TUxBQkNIQTI1MDk1OA', 'name': 'Champagnat', 'city': {'id': 'TUxBQ1BJTGFyMTIz', 'name': 'Pilar'}, 'state': {'id': 'TUxBUEdSQWU4ZDkz', 'name': 'Bs.As. G.B.A. Norte'}, 'country': {'id': 'AR', 'name': 'Argentina'}, 'geo_information': {'location': {'latitude': -34.442444, 'longitude': -58.923428}}, 'subneighborhoods': []}, {'id': 'TVhYQ2x1YiBCYW1ib29UVXhCUTFCSlRHRnlNV', 'name': 'Club Bamboo', 'city': {'id': 'TUxBQ1BJTGFyMTIz', 'name': 'Pilar'}, 'state': {'id': 'TUxBUEdSQWU4ZDkz', 'name': 'Bs.As. G.B.A. Norte'}, 'country': {'id': 'AR', 'name': 'Argentina'}, 'geo_information': {'location': {'latitude': -34.4113437, 'longitude': -58.8487923}}, 'subneighborhoods': []}, {'id': 'TUxBQkNMVTY1Mzla', 'name': 'Club de Campo Larena - Los Quinchos', 'city': {'id': 'TUxBQ1BJTGFyMTIz', 'name': 'Pilar'}, 'state': {'id': 'TUxBUEdSQWU4ZDkz', 'name': 'Bs.As. G.B.A. Norte'}, 'country': {'id': 'AR', 'name': 'Argentina'}, 'geo_information': {'location': {'latitude': -34.38462, 'longitude': -59.00388}}, 'subneighborhoods': []}, {'id': 'TUxBQkNMVTU0NzUxNg', 'name': 'Club de Campo Mayling', 'city': {'id': 'TUxBQ1BJTGFyMTIz', 'name': 'Pilar'}, 'state': {'id': 'TUxBUEdSQWU4ZDkz', 'name': 'Bs.As. G.B.A. Norte'}, 'country': {'id': 'AR', 'name': 'Argentina'}, 'geo_information': {'location': {'latitude': -34.42919, 'longitude': -58.88024}}, 'subneighborhoods': []}, {'id': 'TUxBQkNPTjQ0NDA5NA', 'name': 'Condominio Tortugas I y II', 'city': {'id': 'TUxBQ1BJTGFyMTIz', 'name': 'Pilar'}, 'state': {'id': 'TUxBUEdSQWU4ZDkz', 'name': 'Bs.As. G.B.A. Norte'}, 'country': {'id': 'AR', 'name': 'Argentina'}, 'geo_information': {'location': {'latitude': -34.448112, 'longitude': -58.74358}}, 'subneighborhoods': []}, {'id': 'TVhYQ29uZG9taW5pbyBUb3J0dWdhcyBJSUkg4', 'name': 'Condominio Tortugas III – Quinta la Jimena', 'city': {'id': 'TUxBQ1BJTGFyMTIz', 'name': 'Pilar'}, 'state': {'id': 'TUxBUEdSQWU4ZDkz', 'name': 'Bs.As. G.B.A. Norte'}, 'country': {'id': 'AR', 'name': 'Argentina'}, 'geo_information': {'location': {'latitude': -34.445051, 'longitude': -58.7940283}}, 'subneighborhoods': []}, {'id': 'TUxBQkNPVTYyNjla', 'name': 'Country Club El Jagüel', 'city': {'id': 'TUxBQ1BJTGFyMTIz', 'name': 'Pilar'}, 'state': {'id': 'TUxBUEdSQWU4ZDkz', 'name': 'Bs.As. G.B.A. Norte'}, 'country': {'id': 'AR', 'name': 'Argentina'}, 'geo_information': {'location': {'latitude': -34.400658, 'longitude': -59.020603}}, 'subneighborhoods': []}, {'id': 'TVhYQ3Jpc3RhbGluZVRVeEJRMUJKVEdGeU1US', 'name': 'Cristaline', 'city': {'id': 'TUxBQ1BJTGFyMTIz', 'name': 'Pilar'}, 'state': {'id': 'TUxBUEdSQWU4ZDkz', 'name': 'Bs.As. G.B.A. Norte'}, 'country': {'id': 'AR', 'name': 'Argentina'}, 'geo_information': {'location': {'latitude': -34.4360081, 'longitude': -58.7970715}}, 'subneighborhoods': []}, {'id': 'TUxBQkNVTTE2MzM0Nw', 'name': 'Cumbre de Rosas', 'city': {'id': 'TUxBQ1BJTGFyMTIz', 'name': 'Pilar'}, 'state': {'id': 'TUxBUEdSQWU4ZDkz', 'name': 'Bs.As. G.B.A. Norte'}, 'country': {'id': 'AR', 'name': 'Argentina'}, 'geo_information': {'location': {'latitude': -34.418251, 'longitude': -58.8682767}}, 'subneighborhoods': []}, {'id': 'TUxBQkRFTDI4MzUyMg', 'name': 'De Las Quintas', 'city': {'id': 'TUxBQ1BJTGFyMTIz', 'name': 'Pilar'}, 'state': {'id': 'TUxBUEdSQWU4ZDkz', 'name': 'Bs.As. G.B.A. Norte'}, 'country': {'id': 'AR', 'name': 'Argentina'}, 'geo_information': {'location': {'latitude': -34.45626, 'longitude': -58.80281}}, 'subneighborhoods': []}, {'id': 'TUxBQkRFVjI0NzQ2NA', 'name': 'De Vicenzo C.C.', 'city': {'id': 'TUxBQ1BJTGFyMTIz', 'name': 'Pilar'}, 'state': {'id': 'TUxBUEdSQWU4ZDkz', 'name': 'Bs.As. G.B.A. Norte'}, 'country': {'id': 'AR', 'name': 'Argentina'}, 'geo_information': {'location': {'latitude': -34.44617, 'longitude': -58.767106}}, 'subneighborhoods': []}, {'id': 'TVhYRGVsIFZpc29UVXhCUTFCSlRHRnlNVEl6', 'name': 'Del Viso', 'city': {'id': 'TUxBQ1BJTGFyMTIz', 'name': 'Pilar'}, 'state': {'id': 'TUxBUEdSQWU4ZDkz', 'name': 'Bs.As. G.B.A. Norte'}, 'country': {'id': 'AR', 'name': 'Argentina'}, 'geo_information': {'location': {'latitude': -34.45, 'longitude': -58.8019}}, 'subneighborhoods': []}, {'id': 'TVhYRWNvYWxkZWFUVXhCUTFCSlRHRnlNVEl6', 'name': 'Ecoaldea', 'city': {'id': 'TUxBQ1BJTGFyMTIz', 'name': 'Pilar'}, 'state': {'id': 'TUxBUEdSQWU4ZDkz', 'name': 'Bs.As. G.B.A. Norte'}, 'country': {'id': 'AR', 'name': 'Argentina'}, 'geo_information': {'location': {'latitude': -34.4646213, 'longitude': -58.8977058}}, 'subneighborhoods': []}, {'id': 'TUxBQkVMQTk2NjE5OQ', 'name': 'El Alazán', 'city': {'id': 'TUxBQ1BJTGFyMTIz', 'name': 'Pilar'}, 'state': {'id': 'TUxBUEdSQWU4ZDkz', 'name': 'Bs.As. G.B.A. Norte'}, 'country': {'id': 'AR', 'name': 'Argentina'}, 'geo_information': {'location': {'latitude': -34.392487, 'longitude': -58.966053}}, 'subneighborhoods': []}, {'id': 'TVhYRWwgQWxqaWJlVFV4QlExQkpUR0Z5TVRJe', 'name': 'El Aljibe', 'city': {'id': 'TUxBQ1BJTGFyMTIz', 'name': 'Pilar'}, 'state': {'id': 'TUxBUEdSQWU4ZDkz', 'name': 'Bs.As. G.B.A. Norte'}, 'country': {'id': 'AR', 'name': 'Argentina'}, 'geo_information': {'location': {'latitude': -34.445428, 'longitude': -58.97512}}, 'subneighborhoods': []}, {'id': 'TUxBQkVMQjExNTk2OQ', 'name': 'El Barranco', 'city': {'id': 'TUxBQ1BJTGFyMTIz', 'name': 'Pilar'}, 'state': {'id': 'TUxBUEdSQWU4ZDkz', 'name': 'Bs.As. G.B.A. Norte'}, 'country': {'id': 'AR', 'name': 'Argentina'}, 'geo_information': {'location': {'latitude': -34.452084, 'longitude': -58.756836}}, 'subneighborhoods': []}, {'id': 'TUxBQkVMQjMzMTkyMA', 'name': 'El Boulevard', 'city': {'id': 'TUxBQ1BJTGFyMTIz', 'name': 'Pilar'}, 'state': {'id': 'TUxBUEdSQWU4ZDkz', 'name': 'Bs.As. G.B.A. Norte'}, 'country': {'id': 'AR', 'name': 'Argentina'}, 'geo_information': {'location': {'latitude': -34.58484, 'longitude': -58.43321}}, 'subneighborhoods': []}, {'id': 'TUxBQkVMQzY5MjI3Ng', 'name': 'El Castro', 'city': {'id': 'TUxBQ1BJTGFyMTIz', 'name': 'Pilar'}, 'state': {'id': 'TUxBUEdSQWU4ZDkz', 'name': 'Bs.As. G.B.A. Norte'}, 'country': {'id': 'AR', 'name': 'Argentina'}, 'geo_information': {'location': {'latitude': -34.467484, 'longitude': -58.916176}}, 'subneighborhoods': []}, {'id': 'TUxBQkVMRTY2MTc5Mw', 'name': 'El Establo', 'city': {'id': 'TUxBQ1BJTGFyMTIz', 'name': 'Pilar'}, 'state': {'id': 'TUxBUEdSQWU4ZDkz', 'name': 'Bs.As. G.B.A. Norte'}, 'country': {'id': 'AR', 'name': 'Argentina'}, 'geo_information': {'location': {'latitude': -34.597343, 'longitude': -58.374165}}, 'subneighborhoods': []}, {'id': 'TUxBQkVMRTUwOTY1OA', 'name': 'El Estribo', 'city': {'id': 'TUxBQ1BJTGFyMTIz', 'name': 'Pilar'}, 'state': {'id': 'TUxBUEdSQWU4ZDkz', 'name': 'Bs.As. G.B.A. Norte'}, 'country': {'id': 'AR', 'name': 'Argentina'}, 'geo_information': {'location': {'latitude': -34.449192, 'longitude': -58.92221}}, 'subneighborhoods': []}, {'id': 'TUxBQkVMSDM4ODE3OQ', 'name': 'El Hornero', 'city': {'id': 'TUxBQ1BJTGFyMTIz', 'name': 'Pilar'}, 'state': {'id': 'TUxBUEdSQWU4ZDkz', 'name': 'Bs.As. G.B.A. Norte'}, 'country': {'id': 'AR', 'name': 'Argentina'}, 'geo_information': {'location': {'latitude': -34.4477, 'longitude': -58.92091}}, 'subneighborhoods': []}, {'id': 'TUxBQkVMTDk3OTQ3Mg', 'name': 'El Lucero', 'city': {'id': 'TUxBQ1BJTGFyMTIz', 'name': 'Pilar'}, 'state': {'id': 'TUxBUEdSQWU4ZDkz', 'name': 'Bs.As. G.B.A. Norte'}, 'country': {'id': 'AR', 'name': 'Argentina'}, 'geo_information': {'location': {'latitude': -34.445786, 'longitude': -58.928352}}, 'subneighborhoods': []}, {'id': 'TUxBQkVMTTk5ODQ1NQ', 'name': 'El Mirasol', 'city': {'id': 'TUxBQ1BJTGFyMTIz', 'name': 'Pilar'}, 'state': {'id': 'TUxBUEdSQWU4ZDkz', 'name': 'Bs.As. G.B.A. Norte'}, 'country': {'id': 'AR', 'name': 'Argentina'}, 'geo_information': {'location': {'latitude': -34.453705, 'longitude': -58.72782}}, 'subneighborhoods': []}, {'id': 'TUxBQkVMTTQ4MzAxMA', 'name': 'El Molino', 'city': {'id': 'TUxBQ1BJTGFyMTIz', 'name': 'Pilar'}, 'state': {'id': 'TUxBUEdSQWU4ZDkz', 'name': 'Bs.As. G.B.A. Norte'}, 'country': {'id': 'AR', 'name': 'Argentina'}, 'geo_information': {'location': {'latitude': -34.43605, 'longitude': -58.83799}}, 'subneighborhoods': []}, {'id': 'TUxBQkVMUDExNzA2Mw', 'name': 'El Patacón', 'city': {'id': 'TUxBQ1BJTGFyMTIz', 'name': 'Pilar'}, 'state': {'id': 'TUxBUEdSQWU4ZDkz', 'name': 'Bs.As. G.B.A. Norte'}, 'country': {'id': 'AR', 'name': 'Argentina'}, 'geo_information': {'location': {'latitude': -34.461695, 'longitude': -58.8321767}}, 'subneighborhoods': []}, {'id': 'TUxBQkVMUDkzMzA1Ng', 'name': 'El Portal de Pilar', 'city': {'id': 'TUxBQ1BJTGFyMTIz', 'name': 'Pilar'}, 'state': {'id': 'TUxBUEdSQWU4ZDkz', 'name': 'Bs.As. G.B.A. Norte'}, 'country': {'id': 'AR', 'name': 'Argentina'}, 'geo_information': {'location': {'latitude': -34.441723, 'longitude': -58.923473}}, 'subneighborhoods': []}, {'id': 'TUxBQkVMUDU3ODY1Mg', 'name': 'El Portillo', 'city': {'id': 'TUxBQ1BJTGFyMTIz', 'name': 'Pilar'}, 'state': {'id': 'TUxBUEdSQWU4ZDkz', 'name': 'Bs.As. G.B.A. Norte'}, 'country': {'id': 'AR', 'name': 'Argentina'}, 'geo_information': {'location': {'latitude': -34.45183, 'longitude': -58.97508}}, 'subneighborhoods': []},