,id,name,city_name,city_id,state_name,state_id,country_name,latitude,longitude,latitude_r1,latitude_r2,longitude_r1,longitude_r2
0,TVhYQXJlbmFzIDE5VFV4QlEwTlBVM1JoWlhOd,Arenas 19,Costa Esmeralda,TUxBQ0NPU3RhZXNt,Bs.As. Costa Atlántica,TUxBUENPU2ExMmFkMw,Argentina,-37.0058481,-56.7958564,-37.0458481,-36.9658481,-56.8358564,-56.7558564
1,TVhYQm9zcXVlVFV4QlEwTlBVM1JoWlhOdA,Bosque,Costa Esmeralda,TUxBQ0NPU3RhZXNt,Bs.As. Costa Atlántica,TUxBUENPU2ExMmFkMw,Argentina,-37.0024844,-56.8049249,-37.0424844,-36.9624844,-56.8449249,-56.764924900000004
2,TVhYRGVwb3J0aXZvIDFUVXhCUTBOUFUzUmhaW,Deportivo 1,Costa Esmeralda,TUxBQ0NPU3RhZXNt,Bs.As. Costa Atlántica,TUxBUENPU2ExMmFkMw,Argentina,-37.0096776,-56.802687,-37.0496776,-36.969677600000004,-56.842687,-56.762687
3,TVhYRGVwb3J0aXZvIDJUVXhCUTBOUFUzUmhaW,Deportivo 2,Costa Esmeralda,TUxBQ0NPU3RhZXNt,Bs.As. Costa Atlántica,TUxBUENPU2ExMmFkMw,Argentina,-37.0106714,-56.7952197,-37.0506714,-36.9706714,-56.835219699999996,-56.7552197
4,TVhYRWN1ZXN0cmVUVXhCUTBOUFUzUmhaWE50,Ecuestre,Costa Esmeralda,TUxBQ0NPU3RhZXNt,Bs.As. Costa Atlántica,TUxBUENPU2ExMmFkMw,Argentina,-37.0226341,-56.819143,-37.0626341,-36.9826341,-56.859142999999996,-56.779143
5,TVhYR29sZiAxVFV4QlEwTlBVM1JoWlhOdA,Golf 1,Costa Esmeralda,TUxBQ0NPU3RhZXNt,Bs.As. Costa Atlántica,TUxBUENPU2ExMmFkMw,Argentina,-37.0153646,-56.8064169,-37.0553646,-36.9753646,-56.8464169,-56.7664169
6,TVhYR29sZiAyVFV4QlEwTlBVM1JoWlhOdA,Golf 2,Costa Esmeralda,TUxBQ0NPU3RhZXNt,Bs.As. Costa Atlántica,TUxBUENPU2ExMmFkMw,Argentina,-37.0224467,-56.81693,-37.0624467,-36.982446700000004,-56.85693,-56.77693
7,TVhYTWFyaXRpbW8gSVRVeEJRME5QVTNSaFpYT,Maritimo I,Costa Esmeralda,TUxBQ0NPU3RhZXNt,Bs.As. Costa Atlántica,TUxBUENPU2ExMmFkMw,Argentina,-37.008528,-56.7768267,-37.048528,-36.968528,-56.8168267,-56.7368267
8,TVhYTWFyaXRpbW8gSUlUVXhCUTBOUFUzUmhaW,Maritimo II,Costa Esmeralda,TUxBQ0NPU3RhZXNt,Bs.As. Costa Atlántica,TUxBUENPU2ExMmFkMw,Argentina,-37.018397,-56.7915997,-37.058397,-36.978397,-56.8315997,-56.7515997
9,TVhYUmVzaWRlbmNpYWwgMVRVeEJRME5QVTNSa,Residencial 1,Costa Esmeralda,TUxBQ0NPU3RhZXNt,Bs.As. Costa Atlántica,TUxBUENPU2ExMmFkMw,Argentina,-37.0199797,-56.8045704,-37.0599797,-36.9799797,-56.8445704,-56.764570400000004
10,TVhYUmVzaWRlbmNpYWwgMlRVeEJRME5QVTNSa,Residencial 2,Costa Esmeralda,TUxBQ0NPU3RhZXNt,Bs.As. Costa Atlántica,TUxBUENPU2ExMmFkMw,Argentina,-37.0147706,-56.8028538,-37.0547706,-36.9747706,-56.8428538,-56.7628538
11,TVhYU2VuZGVyb3MgMVRVeEJRME5QVTNSaFpYT,Senderos 1,Costa Esmeralda,TUxBQ0NPU3RhZXNt,Bs.As. Costa Atlántica,TUxBUENPU2ExMmFkMw,Argentina,-37.0106714,-56.7952197,-37.0506714,-36.9706714,-56.835219699999996,-56.7552197
12,TVhYU2VuZGVyb3MgMlRVeEJRME5QVTNSaFpYT,Senderos 2,Costa Esmeralda,TUxBQ0NPU3RhZXNt,Bs.As. Costa Atlántica,TUxBUENPU2ExMmFkMw,Argentina,-37.0106714,-56.7952197,-37.0506714,-36.9706714,-56.835219699999996,-56.7552197
13,TVhYU2VuZGVyb3MgM1RVeEJRME5QVTNSaFpYT,Senderos 3,Costa Esmeralda,TUxBQ0NPU3RhZXNt,Bs.As. Costa Atlántica,TUxBUENPU2ExMmFkMw,Argentina,-37.00007,-56.7986897,-37.04007,-36.96007,-56.838689699999996,-56.7586897
14,TVhYU2VuZGVyb3MgNFRVeEJRME5QVTNSaFpYT,Senderos 4,Costa Esmeralda,TUxBQ0NPU3RhZXNt,Bs.As. Costa Atlántica,TUxBUENPU2ExMmFkMw,Argentina,-37.0070716,-56.8036856,-37.0470716,-36.967071600000004,-56.8436856,-56.7636856
15,TVhYRWwgUGluYXJUVXhCUTB4QldqUTRZVFF6,El Pinar,La Lucila del Mar,TUxBQ0xBWjQ4YTQz,Bs.As. Costa Atlántica,TUxBUENPU2ExMmFkMw,Argentina,-36.6501368,-56.6886595,-36.6901368,-36.6101368,-56.7286595,-56.6486595
16,TUxBQlBFUjczOTYxOA,Bosques de Peralta Ramos,Mar del Plata,TUxBQ01BUjU2MGMw,Bs.As. Costa Atlántica,TUxBUENPU2ExMmFkMw,Argentina,-38.084213,-57.567432,-38.124213,-38.044213,-57.607431999999996,-57.527432
17,TUxBQkJSSTQyNjQxMg,Bristol,Mar del Plata,TUxBQ01BUjU2MGMw,Bs.As. Costa Atlántica,TUxBUENPU2ExMmFkMw,Argentina,-38.001747,-57.542686,-38.041747,-37.961747,-57.582686,-57.502686000000004
18,TUxBQkNFTjI4MjE0OA,Centro,Mar del Plata,TUxBQ01BUjU2MGMw,Bs.As. Costa Atlántica,TUxBUENPU2ExMmFkMw,Argentina,-38.098362,-57.563972,-38.138362,-38.058362,-57.603972,-57.523972
19,TVhYQ2hhdXZpblRVeEJRMDFCVWpVMk1HTXc,Chauvin,Mar del Plata,TUxBQ01BUjU2MGMw,Bs.As. Costa Atlántica,TUxBUENPU2ExMmFkMw,Argentina,-38.0216333,-57.5670609,-38.0616333,-37.9816333,-57.6070609,-57.5270609
20,TVhYQ29uc3RpdHVjacOzblRVeEJRMDFCVWpVM,Constitución,Mar del Plata,TUxBQ01BUjU2MGMw,Bs.As. Costa Atlántica,TUxBUENPU2ExMmFkMw,Argentina,-37.9706057,-57.5451496,-38.0106057,-37.9306057,-57.5851496,-57.5051496
21,TUxBQkVMRjc1NzUwNg,El Faro,Mar del Plata,TUxBQ01BUjU2MGMw,Bs.As. Costa Atlántica,TUxBUENPU2ExMmFkMw,Argentina,-37.999157,-57.55431,-38.039156999999996,-37.959157,-57.59431,-57.51431
22,TVhYR8O8ZW1lc1RVeEJRMDFCVWpVMk1HTXc,Güemes,Mar del Plata,TUxBQ01BUjU2MGMw,Bs.As. Costa Atlántica,TUxBUENPU2ExMmFkMw,Argentina,-38.0203772,-57.5477206,-38.0603772,-37.9803772,-57.5877206,-57.5077206
23,TUxBQkxBUDU3MjQwNg,La Perla,Mar del Plata,TUxBQ01BUjU2MGMw,Bs.As. Costa Atlántica,TUxBUENPU2ExMmFkMw,Argentina,-37.988773,-57.549957,-38.028773,-37.948773,-57.589957,-57.509957
24,TVhYTGFzIEF2ZW5pZGFzVFV4QlEwMUJValUyT,Las Avenidas,Mar del Plata,TUxBQ01BUjU2MGMw,Bs.As. Costa Atlántica,TUxBUENPU2ExMmFkMw,Argentina,-38.0332632,-57.5759829,-38.0732632,-37.9932632,-57.6159829,-57.5359829
25,TVhYTGFzIExpbGFzVFV4QlEwMUJValUyTUdNd,Las Lilas,Mar del Plata,TUxBQ01BUjU2MGMw,Bs.As. Costa Atlántica,TUxBUENPU2ExMmFkMw,Argentina,-37.9846383,-57.5895728,-38.0246383,-37.9446383,-57.6295728,-57.5495728
26,TVhYTG9tYSBTdGVsbGEgTWFyaXNUVXhCUTAxQ,Loma Stella Maris,Mar del Plata,TUxBQ01BUjU2MGMw,Bs.As. Costa Atlántica,TUxBUENPU2ExMmFkMw,Argentina,-38.0149109,-57.5383924,-38.054910899999996,-37.9749109,-57.5783924,-57.4983924
27,TVhYTG9zIEFjYW50aWxhZG9zVFV4QlEwMUJVa,Los Acantilados,Mar del Plata,TUxBQ01BUjU2MGMw,Bs.As. Costa Atlántica,TUxBUENPU2ExMmFkMw,Argentina,-38.11666,-57.6,-38.15666,-38.076660000000004,-57.64,-57.56
28,TUxBQkxPUzI2Njg1Ng,Los Robles,Mar del Plata,TUxBQ01BUjU2MGMw,Bs.As. Costa Atlántica,TUxBUENPU2ExMmFkMw,Argentina,-38.008293,-57.589687,-38.048293,-37.968293,-57.629687,-57.549687
29,TUxBQkxPUzY2NDc2MA,Los Troncos,Mar del Plata,TUxBQ01BUjU2MGMw,Bs.As. Costa Atlántica,TUxBUENPU2ExMmFkMw,Argentina,-38.018173,-57.54733,-38.058173,-37.978173,-57.58733,-57.50733
30,TVhYTG9zIHBpbmFyZXNUVXhCUTAxQlVqVTJNR,Los pinares,Mar del Plata,TUxBQ01BUjU2MGMw,Bs.As. Costa Atlántica,TUxBUENPU2ExMmFkMw,Argentina,-37.9646922,-57.5676647,-38.0046922,-37.9246922,-57.6076647,-57.5276647
31,TVhYTWFjcm9jZW50cm9UVXhCUTAxQlVqVTJNR,Macrocentro,Mar del Plata,TUxBQ01BUjU2MGMw,Bs.As. Costa Atlántica,TUxBUENPU2ExMmFkMw,Argentina,-37.9934237,-57.6266558,-38.0334237,-37.9534237,-57.6666558,-57.5866558
32,TVhYTnVldmEgUG9tcGV5YVRVeEJRMDFCVWpVM,Nueva Pompeya,Mar del Plata,TUxBQ01BUjU2MGMw,Bs.As. Costa Atlántica,TUxBUENPU2ExMmFkMw,Argentina,-37.9862846,-57.5570618,-38.0262846,-37.9462846,-57.5970618,-57.5170618
33,TUxBQk9UUjMwNjg0Mg,Otros Barrios,Mar del Plata,TUxBQ01BUjU2MGMw,Bs.As. Costa Atlántica,TUxBUENPU2ExMmFkMw,Argentina,-38.044514,-57.598923,-38.084514,-38.004514,-57.638923,-57.558923
34,TUxBQlBBUjcwNDMyNg,Parque Camet,Mar del Plata,TUxBQ01BUjU2MGMw,Bs.As. Costa Atlántica,TUxBUENPU2ExMmFkMw,Argentina,-37.9419746,-57.5432816,-37.9819746,-37.9019746,-57.5832816,-57.5032816
35,TUxBQlBBUjM2Nzg4NQ,Parque Luro,Mar del Plata,TUxBQ01BUjU2MGMw,Bs.As. Costa Atlántica,TUxBUENPU2ExMmFkMw,Argentina,-37.972355,-57.5594,-38.012355,-37.932355,-57.599399999999996,-57.5194
36,TUxBQlBMQTU4ODc5MA,Playa Chica,Mar del Plata,TUxBQ01BUjU2MGMw,Bs.As. Costa Atlántica,TUxBUENPU2ExMmFkMw,Argentina,-34.62468,-58.48744,-34.66468,-34.58468,-58.52744,-58.44744
37,TUxBQlBMQTYzMjMyNQ,Playa Grande,Mar del Plata,TUxBQ01BUjU2MGMw,Bs.As. Costa Atlántica,TUxBUENPU2ExMmFkMw,Argentina,-38.027794,-57.53232,-38.067794,-37.987794,-57.57232,-57.49232
38,TVhYUGxhemEgQ29sw7NuVFV4QlEwMUJValUyT,Plaza Colón,Mar del Plata,TUxBQ01BUjU2MGMw,Bs.As. Costa Atlántica,TUxBUENPU2ExMmFkMw,Argentina,-37.9826263,-57.5935496,-38.0226263,-37.9426263,-57.6335496,-57.553549600000004
39,TVhYUGxhemEgTWl0cmVUVXhCUTAxQlVqVTJNR,Plaza Mitre,Mar del Plata,TUxBQ01BUjU2MGMw,Bs.As. Costa Atlántica,TUxBUENPU2ExMmFkMw,Argentina,-38.003334,-57.5550409,-38.043334,-37.963334,-57.5950409,-57.5150409
40,TVhYUHVlcnRvVFV4QlEwMUJValUyTUdNdw,Puerto,Mar del Plata,TUxBQ01BUjU2MGMw,Bs.As. Costa Atlántica,TUxBUENPU2ExMmFkMw,Argentina,-38.0174836,-57.7406194,-38.0574836,-37.9774836,-57.7806194,-57.7006194
41,TUxBQlBVTjQ2NTg3OQ,Punta Mogotes,Mar del Plata,TUxBQ01BUjU2MGMw,Bs.As. Costa Atlántica,TUxBUENPU2ExMmFkMw,Argentina,-38.066685,-57.54373,-38.106685,-38.026685,-57.583729999999996,-57.50373
42,TVhYUnVtZW5jb1RVeEJRMDFCVWpVMk1HTXc,Rumenco,Mar del Plata,TUxBQ01BUjU2MGMw,Bs.As. Costa Atlántica,TUxBUENPU2ExMmFkMw,Argentina,-38.0822352,-57.5899456,-38.1222352,-38.0422352,-57.6299456,-57.5499456
43,TVhYU2FuIENhcmxvc1RVeEJRMDFCVWpVMk1HT,San Carlos,Mar del Plata,TUxBQ01BUjU2MGMw,Bs.As. Costa Atlántica,TUxBUENPU2ExMmFkMw,Argentina,-38.0173174,-57.7406199,-38.0573174,-37.977317400000004,-57.7806199,-57.7006199
44,TVhYU2FuIEpvc8OpVFV4QlEwMUJValUyTUdNd,San José,Mar del Plata,TUxBQ01BUjU2MGMw,Bs.As. Costa Atlántica,TUxBUENPU2ExMmFkMw,Argentina,-37.9876426,-57.6379199,-38.0276426,-37.9476426,-57.6779199,-57.5979199
45,TVhYVGVybWluYWwgTnVldmFUVXhCUTAxQlVqV,Terminal Nueva,Mar del Plata,TUxBQ01BUjU2MGMw,Bs.As. Costa Atlántica,TUxBUENPU2ExMmFkMw,Argentina,-37.9833583,-57.5780235,-38.0233583,-37.9433583,-57.6180235,-57.5380235
46,TVhYVGVybWluYWwgVmllamFUVXhCUTAxQlVqV,Terminal Vieja,Mar del Plata,TUxBQ01BUjU2MGMw,Bs.As. Costa Atlántica,TUxBUENPU2ExMmFkMw,Argentina,-38.0108282,-57.5443532,-38.0508282,-37.9708282,-57.5843532,-57.504353200000004
47,TUxBQlRPUjY1MTE0MQ,Torreón,Mar del Plata,TUxBQ01BUjU2MGMw,Bs.As. Costa Atlántica,TUxBUENPU2ExMmFkMw,Argentina,-38.008,-57.53334,-38.048,-37.968,-57.57334,-57.49334
48,TVhYVHJpYnVuYWxlc1RVeEJRMDFCVWpVMk1HT,Tribunales,Mar del Plata,TUxBQ01BUjU2MGMw,Bs.As. Costa Atlántica,TUxBUENPU2ExMmFkMw,Argentina,-38.0093888,-57.5533086,-38.0493888,-37.969388800000004,-57.5933086,-57.5133086
49,TUxBQlZBUjcxMjg0NA,Varese,Mar del Plata,TUxBQ01BUjU2MGMw,Bs.As. Costa Atlántica,TUxBUENPU2ExMmFkMw,Argentina,-38.014317,-57.530277,-38.054317,-37.974317,-57.570277,-57.490277
50,TVhYWmFjYWduaW5pVFV4QlEwMUJValUyTUdNd,Zacagnini,Mar del Plata,TUxBQ01BUjU2MGMw,Bs.As. Costa Atlántica,TUxBUENPU2ExMmFkMw,Argentina,-37.9521327,-57.5393153,-37.9921327,-37.9121327,-57.5793153,-57.4993153
51,TVhY4oCcQ2Fpc2FtYXLigJ1UVXhCUTAxQlVqV,“Caisamar”,Mar del Plata,TUxBQ01BUjU2MGMw,Bs.As. Costa Atlántica,TUxBUENPU2ExMmFkMw,Argentina,-37.9562529,-57.5585246,-37.9962529,-37.9162529,-57.5985246,-57.5185246
52,TVhYQWxhbW9zVFV4QlExQkpUbU0wTm1FNQ,Alamos,Pinamar,TUxBQ1BJTmM0NmE5,Bs.As. Costa Atlántica,TUxBUENPU2ExMmFkMw,Argentina,-37.1008534,-56.8648473,-37.1408534,-37.0608534,-56.9048473,-56.8248473
53,TVhYQ2VudHJvVFV4QlExQkpUbU0wTm1FNQ,Centro,Pinamar,TUxBQ1BJTmM0NmE5,Bs.As. Costa Atlántica,TUxBUENPU2ExMmFkMw,Argentina,-37.1008534,-56.8648473,-37.1408534,-37.0608534,-56.9048473,-56.8248473
54,TVhYRnJvbnRlcmFUVXhCUTFCSlRtTTBObUU1,Frontera,Pinamar,TUxBQ1BJTmM0NmE5,Bs.As. Costa Atlántica,TUxBUENPU2ExMmFkMw,Argentina,-37.1008534,-56.8648473,-37.1408534,-37.0608534,-56.9048473,-56.8248473
55,TVhYR29sZiBOdWV2b1RVeEJRMUJKVG1NME5tR,Golf Nuevo,Pinamar,TUxBQ1BJTmM0NmE5,Bs.As. Costa Atlántica,TUxBUENPU2ExMmFkMw,Argentina,-37.1008534,-56.8648473,-37.1408534,-37.0608534,-56.9048473,-56.8248473
56,TVhYR29sZiBWaWVqb1RVeEJRMUJKVG1NME5tR,Golf Viejo,Pinamar,TUxBQ1BJTmM0NmE5,Bs.As. Costa Atlántica,TUxBUENPU2ExMmFkMw,Argentina,-37.1008534,-56.8648473,-37.1408534,-37.0608534,-56.9048473,-56.8248473
57,TVhYTGEgSGVycmFkdXJhVFV4QlExQkpUbU0wT,La Herradura,Pinamar,TUxBQ1BJTmM0NmE5,Bs.As. Costa Atlántica,TUxBUENPU2ExMmFkMw,Argentina,-37.1008534,-56.8648473,-37.1408534,-37.0608534,-56.9048473,-56.8248473
58,TVhYTGluZWEgTm9ydGUgTWFyVFV4QlExQkpUb,Linea Norte Mar,Pinamar,TUxBQ1BJTmM0NmE5,Bs.As. Costa Atlántica,TUxBUENPU2ExMmFkMw,Argentina,-37.1008534,-56.8648473,-37.1408534,-37.0608534,-56.9048473,-56.8248473
59,TVhYTGluZWEgU3VyIE1hclRVeEJRMUJKVG1NM,Linea Sur Mar,Pinamar,TUxBQ1BJTmM0NmE5,Bs.As. Costa Atlántica,TUxBUENPU2ExMmFkMw,Argentina,-37.1008534,-56.8648473,-37.1408534,-37.0608534,-56.9048473,-56.8248473
60,TVhYTmF5YWRlc1RVeEJRMUJKVG1NME5tRTU,Nayades,Pinamar,TUxBQ1BJTmM0NmE5,Bs.As. Costa Atlántica,TUxBUENPU2ExMmFkMw,Argentina,-37.1008534,-56.8648473,-37.1408534,-37.0608534,-56.9048473,-56.8248473
61,TVhYT2JyZXJvVFV4QlExQkpUbU0wTm1FNQ,Obrero,Pinamar,TUxBQ1BJTmM0NmE5,Bs.As. Costa Atlántica,TUxBUENPU2ExMmFkMw,Argentina,-37.1008534,-56.8648473,-37.1408534,-37.0608534,-56.9048473,-56.8248473
62,TVhYUGluYW1hciBDaGljb1RVeEJRMUJKVG1NM,Pinamar Chico,Pinamar,TUxBQ1BJTmM0NmE5,Bs.As. Costa Atlántica,TUxBUENPU2ExMmFkMw,Argentina,-37.1008534,-56.8648473,-37.1408534,-37.0608534,-56.9048473,-56.8248473
63,TVhYUGlvbmVyb3NUVXhCUTFCSlRtTTBObUU1,Pioneros,Pinamar,TUxBQ1BJTmM0NmE5,Bs.As. Costa Atlántica,TUxBUENPU2ExMmFkMw,Argentina,-37.092771,-56.8737496,-37.132771,-37.052771,-56.913749599999996,-56.8337496
64,TVhYU2FuIEpvc8OpVFV4QlExQkpUbU0wTm1FN,San José,Pinamar,TUxBQ1BJTmM0NmE5,Bs.As. Costa Atlántica,TUxBUENPU2ExMmFkMw,Argentina,-37.1008534,-56.8648473,-37.1408534,-37.0608534,-56.9048473,-56.8248473
65,TVhYVGVycmF6YXMgYWwgR29sZlRVeEJRMUJKV,Terrazas al Golf,Pinamar,TUxBQ1BJTmM0NmE5,Bs.As. Costa Atlántica,TUxBUENPU2ExMmFkMw,Argentina,-37.1008534,-56.8648473,-37.1408534,-37.0608534,-56.9048473,-56.8248473
66,TVhYVHJpZGVudGVUVXhCUTFCSlRtTTBObUU1,Tridente,Pinamar,TUxBQ1BJTmM0NmE5,Bs.As. Costa Atlántica,TUxBUENPU2ExMmFkMw,Argentina,-37.1008534,-56.8648473,-37.1408534,-37.0608534,-56.9048473,-56.8248473
67,TVhYVmlsbGEgUm9ibGVzVFV4QlExQkpUbU0wT,Villa Robles,Pinamar,TUxBQ1BJTmM0NmE5,Bs.As. Costa Atlántica,TUxBUENPU2ExMmFkMw,Argentina,-37.1008534,-56.8648473,-37.1408534,-37.0608534,-56.9048473,-56.8248473
68,TVhYWm9uYSBCNVRVeEJRMUJKVG1NME5tRTU,Zona B5,Pinamar,TUxBQ1BJTmM0NmE5,Bs.As. Costa Atlántica,TUxBUENPU2ExMmFkMw,Argentina,-37.1008534,-56.8648473,-37.1408534,-37.0608534,-56.9048473,-56.8248473
69,TVhYWm9uYSBEdXBsZXhUVXhCUTFCSlRtTTBOb,Zona Duplex,Pinamar,TUxBQ1BJTmM0NmE5,Bs.As. Costa Atlántica,TUxBUENPU2ExMmFkMw,Argentina,-37.1008534,-56.8648473,-37.1408534,-37.0608534,-56.9048473,-56.8248473
70,TVhYTGEgQ2FybWVuY2l0YVRVeEJRMVpKVEdVN,La Carmencita,Villa Gesell,TUxBQ1ZJTGU4OGM3,Bs.As. Costa Atlántica,TUxBUENPU2ExMmFkMw,Argentina,-37.2496659,-56.9858265,-37.289665899999996,-37.2096659,-57.0258265,-56.9458265
71,TVhYTGFzIEdhdmlvdGFzVFV4QlExWkpUR1U0T,Las Gaviotas,Villa Gesell,TUxBQ1ZJTGU4OGM3,Bs.As. Costa Atlántica,TUxBUENPU2ExMmFkMw,Argentina,-37.3372634,-57.0314509,-37.3772634,-37.2972634,-57.0714509,-56.991450900000004
72,TVhYTGFzIExpbGFzVFV4QlExWkpUR1U0T0dNM,Las Lilas,Villa Gesell,TUxBQ1ZJTGU4OGM3,Bs.As. Costa Atlántica,TUxBUENPU2ExMmFkMw,Argentina,-37.9846383,-57.5895728,-38.0246383,-37.9446383,-57.6295728,-57.5495728
73,TVhYWm9uYSBDZW50cm9UVXhCUTFaSlRHVTRPR,Zona Centro,Villa Gesell,TUxBQ1ZJTGU4OGM3,Bs.As. Costa Atlántica,TUxBUENPU2ExMmFkMw,Argentina,-37.255977,-56.9772114,-37.295977,-37.215977,-57.0172114,-56.9372114
74,TVhYWm9uYSBOb3J0ZVRVeEJRMVpKVEdVNE9HT,Zona Norte,Villa Gesell,TUxBQ1ZJTGU4OGM3,Bs.As. Costa Atlántica,TUxBUENPU2ExMmFkMw,Argentina,-37.247403,-56.9700967,-37.287403,-37.207403,-57.0100967,-56.9300967
75,TVhYWm9uYSBTdXJUVXhCUTFaSlRHVTRPR00z,Zona Sur,Villa Gesell,TUxBQ1ZJTGU4OGM3,Bs.As. Costa Atlántica,TUxBUENPU2ExMmFkMw,Argentina,-37.2821827,-56.9941646,-37.3221827,-37.2421827,-57.0341646,-56.9541646
76,TUxBQkFDQTY0NTI1Nw,Acacias Blancas,Escobar,TUxBQ0VTQzQ3YTc0,Bs.As. G.B.A. Norte,TUxBUEdSQWU4ZDkz,Argentina,-34.406433,-58.760937,-34.446433,-34.366433,-58.800937,-58.720937
77,TUxBQkFMQTIyODY3MQ,Alamo Alto,Escobar,TUxBQ0VTQzQ3YTc0,Bs.As. G.B.A. Norte,TUxBUEdSQWU4ZDkz,Argentina,-34.393944,-58.76826,-34.433944,-34.353944,-58.80826,-58.72826
78,TUxBQkFMVDQxNjc3MQ,Altavista,Escobar,TUxBQ0VTQzQ3YTc0,Bs.As. G.B.A. Norte,TUxBUEdSQWU4ZDkz,Argentina,-34.379867,-58.7523077,-34.419866999999996,-34.339867,-58.7923077,-58.712307700000004
79,TUxBQkFMVDI3OTcxNg,Altos Don Segundo,Escobar,TUxBQ0VTQzQ3YTc0,Bs.As. G.B.A. Norte,TUxBUEdSQWU4ZDkz,Argentina,-34.330054,-58.8432697,-34.370053999999996,-34.290054,-58.8832697,-58.8032697
80,TUxBQkFMVDk3MjI2OA,Altos de Matheu,Escobar,TUxBQ0VTQzQ3YTc0,Bs.As. G.B.A. Norte,TUxBUEdSQWU4ZDkz,Argentina,-34.3821299,-58.8354084,-34.4221299,-34.3421299,-58.8754084,-58.7954084
81,TUxBQkFNQTgyOTQ5NQ,Amarras de Escobar,Escobar,TUxBQ0VTQzQ3YTc0,Bs.As. G.B.A. Norte,TUxBUEdSQWU4ZDkz,Argentina,-34.3467,-58.8186,-34.3867,-34.3067,-58.8586,-58.778600000000004
82,TUxBQkFSQTUxNjk3Ng,Aranjuez,Escobar,TUxBQ0VTQzQ3YTc0,Bs.As. G.B.A. Norte,TUxBUEdSQWU4ZDkz,Argentina,-34.37052,-58.773376,-34.41052,-34.33052,-58.813376,-58.733376
83,TUxBQkFSQTY5NDEyOQ,Aranzazu,Escobar,TUxBQ0VTQzQ3YTc0,Bs.As. G.B.A. Norte,TUxBUEdSQWU4ZDkz,Argentina,-34.43762,-58.734947,-34.47762,-34.39762,-58.774947,-58.694947
84,TUxBQkJBUjk3ODM1Mw,Barrio Parque Matheu,Escobar,TUxBQ0VTQzQ3YTc0,Bs.As. G.B.A. Norte,TUxBUEdSQWU4ZDkz,Argentina,-34.387962,-58.83196,-34.427962,-34.347962,-58.87196,-58.79196
85,TVhYQmFycmlvIFByaXZhZG8gRWwgRW5zdWXDs,Barrio Privado El Ensueño,Escobar,TUxBQ0VTQzQ3YTc0,Bs.As. G.B.A. Norte,TUxBUEdSQWU4ZDkz,Argentina,-34.3663977,-58.7404777,-34.4063977,-34.3263977,-58.7804777,-58.7004777
86,TUxBQkJFTDY3NDda,Belén de Escobar,Escobar,TUxBQ0VTQzQ3YTc0,Bs.As. G.B.A. Norte,TUxBUEdSQWU4ZDkz,Argentina,-34.3402525,-58.7849434,-34.3802525,-34.3002525,-58.8249434,-58.744943400000004
87,TUxBQkJFTjIzMDg0Nw,Benavidez Greens,Escobar,TUxBQ0VTQzQ3YTc0,Bs.As. G.B.A. Norte,TUxBUEdSQWU4ZDkz,Argentina,-34.423145,-58.709892,-34.463145,-34.383145,-58.749892,-58.669892000000004
88,TUxBQkNIQTc4NjMyMw,Chacras del Cazador,Escobar,TUxBQ0VTQzQ3YTc0,Bs.As. G.B.A. Norte,TUxBUEdSQWU4ZDkz,Argentina,-34.32637,-58.758705,-34.366369999999996,-34.28637,-58.798705,-58.718705
89,Q29uZG9taW5pbyBDaXZpcyBMb3MgQ2VpYm9zVFV4,Condominio Civis Los Ceibos,Escobar,TUxBQ0VTQzQ3YTc0,Bs.As. G.B.A. Norte,TUxBUEdSQWU4ZDkz,Argentina,-34.288837,-58.7798167,-34.328837,-34.248837,-58.8198167,-58.7398167
90,TUxBQkNVQjgxMzcwOQ,Cube,Escobar,TUxBQ0VTQzQ3YTc0,Bs.As. G.B.A. Norte,TUxBUEdSQWU4ZDkz,Argentina,-34.2921,-58.766094,-34.3321,-34.2521,-58.806094,-58.726094
91,TUxBQkVMQTU1MjM3Mg,El Aike,Escobar,TUxBQ0VTQzQ3YTc0,Bs.As. G.B.A. Norte,TUxBUEdSQWU4ZDkz,Argentina,-34.339583,-58.8497457,-34.379583,-34.299583,-58.8897457,-58.8097457
92,TUxBQkVMQTk1ODg5Nw,El Aromo,Escobar,TUxBQ0VTQzQ3YTc0,Bs.As. G.B.A. Norte,TUxBUEdSQWU4ZDkz,Argentina,-34.335777,-58.84945,-34.375777,-34.295777,-58.88945,-58.80945
93,TUxBQkVMQzcxNDYzNw,El Cantón,Escobar,TUxBQ0VTQzQ3YTc0,Bs.As. G.B.A. Norte,TUxBUEdSQWU4ZDkz,Argentina,-34.355003,-58.74204,-34.395003,-34.315003000000004,-58.78204,-58.702040000000004
94,TUxBQkVMQzYxMTJa,El Cazador,Escobar,TUxBQ0VTQzQ3YTc0,Bs.As. G.B.A. Norte,TUxBUEdSQWU4ZDkz,Argentina,-34.3244247,-58.7588654,-34.3644247,-34.2844247,-58.7988654,-58.7188654
95,TUxBQkVMQzMwMjc2MA,El Cazador (Barrio Cerrado),Escobar,TUxBQ0VTQzQ3YTc0,Bs.As. G.B.A. Norte,TUxBUEdSQWU4ZDkz,Argentina,-34.3968819,-58.7251195,-34.436881899999996,-34.3568819,-58.7651195,-58.6851195
96,TUxBQkVMQzQ2NzAyMA,El Cazal,Escobar,TUxBQ0VTQzQ3YTc0,Bs.As. G.B.A. Norte,TUxBUEdSQWU4ZDkz,Argentina,-34.29088,-58.761395,-34.33088,-34.25088,-58.801395,-58.721395
97,TUxBQkVMTDY5OTczMw,El Lucero,Escobar,TUxBQ0VTQzQ3YTc0,Bs.As. G.B.A. Norte,TUxBUEdSQWU4ZDkz,Argentina,-34.42223,-58.763897,-34.46223,-34.38223,-58.803897,-58.723897
98,TUxBQkVMTjM3NDA5Mg,El Naudir,Escobar,TUxBQ0VTQzQ3YTc0,Bs.As. G.B.A. Norte,TUxBUEdSQWU4ZDkz,Argentina,-34.317764,-58.741505,-34.357763999999996,-34.277764,-58.781504999999996,-58.701505
99,TUxBQkVMTjc2NDEzMA,El Nogal,Escobar,TUxBQ0VTQzQ3YTc0,Bs.As. G.B.A. Norte,TUxBUEdSQWU4ZDkz,Argentina,-34.378548,-58.75656,-34.418548,-34.338548,-58.79656,-58.71656
100,TUxBQkVMUDQwNzEyMw,El Pequeño Aromo,Escobar,TUxBQ0VTQzQ3YTc0,Bs.As. G.B.A. Norte,TUxBUEdSQWU4ZDkz,Argentina,-34.335213,-58.845127,-34.375213,-34.295213000000004,-58.885127,-58.805127
101,TUxBQkVMUjU5MTMzMQ,El Recodo,Escobar,TUxBQ0VTQzQ3YTc0,Bs.As. G.B.A. Norte,TUxBUEdSQWU4ZDkz,Argentina,-34.418903,-58.766567,-34.458903,-34.378903,-58.806567,-58.726567
102,TVhYRWwgUm9ibGVUVXhCUTBWVFF6UTNZVGMw,El Roble,Escobar,TUxBQ0VTQzQ3YTc0,Bs.As. G.B.A. Norte,TUxBUEdSQWU4ZDkz,Argentina,-34.4433668,-58.7401138,-34.4833668,-34.4033668,-58.7801138,-58.700113800000004
103,TVhYRmluY2FzIGRlIEVzY29iYXJUVXhCUTBWV,Fincas de Escobar,Escobar,TUxBQ0VTQzQ3YTc0,Bs.As. G.B.A. Norte,TUxBUEdSQWU4ZDkz,Argentina,-34.3606695,-58.7671474,-34.4006695,-34.3206695,-58.8071474,-58.7271474
104,TUxBQkZJTjMxNDIwMg,Fincas de Maschwitz,Escobar,TUxBQ0VTQzQ3YTc0,Bs.As. G.B.A. Norte,TUxBUEdSQWU4ZDkz,Argentina,-34.363007,-58.76657,-34.403007,-34.323007000000004,-58.80657,-58.72657
105,TUxBQkZJTjU2NzgxNQ,Fincas del Lago,Escobar,TUxBQ0VTQzQ3YTc0,Bs.As. G.B.A. Norte,TUxBUEdSQWU4ZDkz,Argentina,-34.364693,-58.76121,-34.404693,-34.324693,-58.80121,-58.72121
106,TUxBQkdBUjY5ODBa,Garín,Escobar,TUxBQ0VTQzQ3YTc0,Bs.As. G.B.A. Norte,TUxBUEdSQWU4ZDkz,Argentina,-34.4224358,-58.7377548,-34.4624358,-34.3824358,-58.7777548,-58.6977548
107,TVhYR3JlZW4gU3R5bGVUVXhCUTBWVFF6UTNZV,Green Style,Escobar,TUxBQ0VTQzQ3YTc0,Bs.As. G.B.A. Norte,TUxBUEdSQWU4ZDkz,Argentina,-34.3851684,-58.7585193,-34.4251684,-34.3451684,-58.7985193,-58.718519300000004
108,TUxBQkhBUjIxNDc0MA,Haras Santa María,Escobar,TUxBQ0VTQzQ3YTc0,Bs.As. G.B.A. Norte,TUxBUEdSQWU4ZDkz,Argentina,-34.340614,-58.850418,-34.380614,-34.300614,-58.890418,-58.810418
109,TUxBQklORzI4MDda,Ingeniero Maschwitz,Escobar,TUxBQ0VTQzQ3YTc0,Bs.As. G.B.A. Norte,TUxBUEdSQWU4ZDkz,Argentina,-34.3828884,-58.7340172,-34.4228884,-34.3428884,-58.774017199999996,-58.6940172
110,TUxBQkpBUjMyMjQ1OA,Jardines de Escobar,Escobar,TUxBQ0VTQzQ3YTc0,Bs.As. G.B.A. Norte,TUxBUEdSQWU4ZDkz,Argentina,-34.359737,-58.805885,-34.399737,-34.319737,-58.845885,-58.765885000000004
111,TUxBQkpBUjk0NDIwNA,Jardín Naútico Escobar,Escobar,TUxBQ0VTQzQ3YTc0,Bs.As. G.B.A. Norte,TUxBUEdSQWU4ZDkz,Argentina,-34.25365,-58.74907,-34.29365,-34.21365,-58.78907,-58.709070000000004
112,TUxBQkxBQTQ0NjEwOQ,La Aldea,Escobar,TUxBQ0VTQzQ3YTc0,Bs.As. G.B.A. Norte,TUxBUEdSQWU4ZDkz,Argentina,-34.310066,-58.72791,-34.350066,-34.270066,-58.76791,-58.68791
113,TUxBQkxBQTM1MTE0Mw,La Arboleda,Escobar,TUxBQ0VTQzQ3YTc0,Bs.As. G.B.A. Norte,TUxBUEdSQWU4ZDkz,Argentina,-34.40324,-58.7427,-34.443239999999996,-34.36324,-58.7827,-58.7027
114,TUxBQkxBQjk1MzIyMQ,La Barra Village,Escobar,TUxBQ0VTQzQ3YTc0,Bs.As. G.B.A. Norte,TUxBUEdSQWU4ZDkz,Argentina,-34.368576,-58.782093,-34.408576,-34.328576,-58.822093,-58.742093000000004
115,TUxBQkxBQzg4OTA1NQ,La Candelaria,Escobar,TUxBQ0VTQzQ3YTc0,Bs.As. G.B.A. Norte,TUxBUEdSQWU4ZDkz,Argentina,-34.399937,-58.74058,-34.439937,-34.359937,-58.78058,-58.70058
116,TUxBQkxPTTkxODla,Loma Verde,Escobar,TUxBQ0VTQzQ3YTc0,Bs.As. G.B.A. Norte,TUxBUEdSQWU4ZDkz,Argentina,-34.330647,-58.837036,-34.370647,-34.290647,-58.877036,-58.797036
117,TVhYTG9zIENhcmFjb2xlc1RVeEJRMFZUUXpRM,Los Caracoles,Escobar,TUxBQ0VTQzQ3YTc0,Bs.As. G.B.A. Norte,TUxBUEdSQWU4ZDkz,Argentina,-34.4023335,-58.7058894,-34.4423335,-34.3623335,-58.745889399999996,-58.6658894
118,TVhYTG9zIENlaWJvc1RVeEJRMFZUUXpRM1lUY,Los Ceibos,Escobar,TUxBQ0VTQzQ3YTc0,Bs.As. G.B.A. Norte,TUxBUEdSQWU4ZDkz,Argentina,-34.2881892,-58.7718714,-34.3281892,-34.2481892,-58.8118714,-58.7318714
119,TG9zIFJvYmxlcyBkZSBNYXNjaHdpdHpUVXhCUTBW,Los Robles de Maschwitz,Escobar,TUxBQ0VTQzQ3YTc0,Bs.As. G.B.A. Norte,TUxBUEdSQWU4ZDkz,Argentina,-34.39161,-58.758663,-34.43161,-34.35161,-58.798663,-58.718663
120,TUxBQkxPUzE1MzExMg,Los Ángeles Village,Escobar,TUxBQ0VTQzQ3YTc0,Bs.As. G.B.A. Norte,TUxBUEdSQWU4ZDkz,Argentina,-34.577694,-58.50819,-34.617694,-34.537694,-58.54819,-58.46819
121,TUxBQk1BUTI1NjRa,Maquinista F. Savio Este,Escobar,TUxBQ0VTQzQ3YTc0,Bs.As. G.B.A. Norte,TUxBUEdSQWU4ZDkz,Argentina,-34.4046214,-58.769464,-34.4446214,-34.364621400000004,-58.809464,-58.729464
122,TUxBQk1BUjIzOTAyMw,Marinas Maschwitz,Escobar,TUxBQ0VTQzQ3YTc0,Bs.As. G.B.A. Norte,TUxBUEdSQWU4ZDkz,Argentina,-34.370605,-58.673534,-34.410605,-34.330605,-58.713533999999996,-58.633534
123,TUxBQk1BUzQwNDA1MQ,Maschwitz C.C.,Escobar,TUxBQ0VTQzQ3YTc0,Bs.As. G.B.A. Norte,TUxBUEdSQWU4ZDkz,Argentina,-34.39074,-58.729958,-34.43074,-34.35074,-58.769958,-58.689958000000004
124,TUxBQk1BUzM0MTI0Mw,Maschwitz Privado,Escobar,TUxBQ0VTQzQ3YTc0,Bs.As. G.B.A. Norte,TUxBUEdSQWU4ZDkz,Argentina,-34.393093,-58.766563,-34.433093,-34.353093,-58.806563,-58.726563
125,TUxBQk1BUzMzMzQzMw,Maschwitz Village,Escobar,TUxBQ0VTQzQ3YTc0,Bs.As. G.B.A. Norte,TUxBUEdSQWU4ZDkz,Argentina,-34.38289,-58.734016,-34.42289,-34.342890000000004,-58.774015999999996,-58.694016
126,TUxBQk1BVDE3NTda,Matheu,Escobar,TUxBQ0VTQzQ3YTc0,Bs.As. G.B.A. Norte,TUxBUEdSQWU4ZDkz,Argentina,-34.3829048,-58.8251105,-34.4229048,-34.3429048,-58.8651105,-58.7851105
127,TUxBQk1JUjQxOTY5Ng,Miraflores,Escobar,TUxBQ0VTQzQ3YTc0,Bs.As. G.B.A. Norte,TUxBUEdSQWU4ZDkz,Argentina,-34.452736,-58.731705,-34.492736,-34.412736,-58.771705,-58.691705
128,TUxBQk5BVTExMTI4NA,Náutico Escobar,Escobar,TUxBQ0VTQzQ3YTc0,Bs.As. G.B.A. Norte,TUxBUEdSQWU4ZDkz,Argentina,-34.29935,-58.77149,-34.339349999999996,-34.25935,-58.81149,-58.73149
129,TUxBQlBBTDY0NTkzNw,Palmer 's Cottage,Escobar,TUxBQ0VTQzQ3YTc0,Bs.As. G.B.A. Norte,TUxBUEdSQWU4ZDkz,Argentina,-34.388046,-58.765812,-34.428046,-34.348046000000004,-58.805811999999996,-58.725812
130,TUxBQlBBUjc1NTQxMQ,Parque Alta Vista,Escobar,TUxBQ0VTQzQ3YTc0,Bs.As. G.B.A. Norte,TUxBUEdSQWU4ZDkz,Argentina,-34.379867,-58.7523077,-34.419866999999996,-34.339867,-58.7923077,-58.712307700000004
131,TUxBQlBVRTYwMDVa,Puerto Paraná,Escobar,TUxBQ0VTQzQ3YTc0,Bs.As. G.B.A. Norte,TUxBUEdSQWU4ZDkz,Argentina,-34.280407,-58.719257,-34.320406999999996,-34.240407,-58.759257,-58.679257
132,TUxBQlBVRTMyMzU0MA,Puertos,Escobar,TUxBQ0VTQzQ3YTc0,Bs.As. G.B.A. Norte,TUxBUEdSQWU4ZDkz,Argentina,-34.35366,-58.73561,-34.39366,-34.31366,-58.77561,-58.69561
133,TVhYUHVlcnRvcyBBcmF1Y2FyaWFzVFV4QlEwV,Puertos Araucarias,Escobar,TUxBQ0VTQzQ3YTc0,Bs.As. G.B.A. Norte,TUxBUEdSQWU4ZDkz,Argentina,-34.3338423,-58.7265587,-34.3738423,-34.2938423,-58.7665587,-58.6865587
134,TVhYUHVlcnRvcyBDZWlib3NUVXhCUTBWVFF6U,Puertos Ceibos,Escobar,TUxBQ0VTQzQ3YTc0,Bs.As. G.B.A. Norte,TUxBUEdSQWU4ZDkz,Argentina,-34.346536,-58.7418173,-34.386536,-34.306536,-58.7818173,-58.7018173
135,TVhYUHVlcnRvcyBDb3N0YXNUVXhCUTBWVFF6U,Puertos Costas,Escobar,TUxBQ0VTQzQ3YTc0,Bs.As. G.B.A. Norte,TUxBUEdSQWU4ZDkz,Argentina,-34.3311188,-58.7437891,-34.3711188,-34.2911188,-58.7837891,-58.7037891
136,TVhYUHVlcnRvcyBNdWVsbGVzVFV4QlEwVlRRe,Puertos Muelles,Escobar,TUxBQ0VTQzQ3YTc0,Bs.As. G.B.A. Norte,TUxBUEdSQWU4ZDkz,Argentina,-34.3536592,-58.7356111,-34.3936592,-34.313659200000004,-58.7756111,-58.6956111
137,TVhYUHVlcnRvcyBOYXRpdmFzVFV4QlEwVlRRe,Puertos Nativas,Escobar,TUxBQ0VTQzQ3YTc0,Bs.As. G.B.A. Norte,TUxBUEdSQWU4ZDkz,Argentina,-34.3536592,-58.7356111,-34.3936592,-34.313659200000004,-58.7756111,-58.6956111
138,TUxBQlBVRTU5NTU3OQ,Puertos del Lago - Acacias,Escobar,TUxBQ0VTQzQ3YTc0,Bs.As. G.B.A. Norte,TUxBUEdSQWU4ZDkz,Argentina,-34.35366,-58.73561,-34.39366,-34.31366,-58.77561,-58.69561
139,TUxBQlBVRTM4NjE1Mg,Puertos del Lago - Muelles,Escobar,TUxBQ0VTQzQ3YTc0,Bs.As. G.B.A. Norte,TUxBUEdSQWU4ZDkz,Argentina,-34.35366,-58.73561,-34.39366,-34.31366,-58.77561,-58.69561
140,TUxBQlBVTjkxMjE3Mg,Punta Parana,Escobar,TUxBQ0VTQzQ3YTc0,Bs.As. G.B.A. Norte,TUxBUEdSQWU4ZDkz,Argentina,-34.246496,-58.7330027,-34.286496,-34.206496,-58.7730027,-58.6930027
141,TVhYUmliZXJhc1RVeEJRMFZUUXpRM1lUYzA,Riberas,Escobar,TUxBQ0VTQzQ3YTc0,Bs.As. G.B.A. Norte,TUxBUEdSQWU4ZDkz,Argentina,-34.3312607,-58.7359091,-34.3712607,-34.2912607,-58.7759091,-58.6959091
142,TUxBQlJJTjI3NTUxMg,Rincón de Maschwitz,Escobar,TUxBQ0VTQzQ3YTc0,Bs.As. G.B.A. Norte,TUxBUEdSQWU4ZDkz,Argentina,-34.394337,-58.725765,-34.434337,-34.354337,-58.765765,-58.685765
143,TUxBQlJJVjE5NDczNA,River Oak's,Escobar,TUxBQ0VTQzQ3YTc0,Bs.As. G.B.A. Norte,TUxBUEdSQWU4ZDkz,Argentina,-34.381025,-58.7341977,-34.421025,-34.341025,-58.7741977,-58.694197700000004
144,TUxBQlJJVjE4MjY1Mw,Riviera Park,Escobar,TUxBQ0VTQzQ3YTc0,Bs.As. G.B.A. Norte,TUxBUEdSQWU4ZDkz,Argentina,-34.397488,-58.657585,-34.437488,-34.357488000000004,-58.697585,-58.617585
145,TUxBQlNBTjYwNjgwOQ,San Andres,Escobar,TUxBQ0VTQzQ3YTc0,Bs.As. G.B.A. Norte,TUxBUEdSQWU4ZDkz,Argentina,-34.577694,-58.50819,-34.617694,-34.537694,-58.54819,-58.46819
146,TUxBQlNBTjI3OTgxMg,San Antonio,Escobar,TUxBQ0VTQzQ3YTc0,Bs.As. G.B.A. Norte,TUxBUEdSQWU4ZDkz,Argentina,-34.36878,-58.758656,-34.40878,-34.32878,-58.798656,-58.718656
147,TUxBQlNBTjM3MzY5OQ,San Lucas Village,Escobar,TUxBQ0VTQzQ3YTc0,Bs.As. G.B.A. Norte,TUxBUEdSQWU4ZDkz,Argentina,-34.40028,-58.742588,-34.44028,-34.36028,-58.782588,-58.702588
148,TUxBQlNBTjgzMTA0Ng,San Matías,Escobar,TUxBQ0VTQzQ3YTc0,Bs.As. G.B.A. Norte,TUxBUEdSQWU4ZDkz,Argentina,-34.360874,-58.75124,-34.400874,-34.320874,-58.79124,-58.711240000000004
149,TUxBQlNBTjQ5NzE0MQ,San Matías Altos de  Maschwitz,Escobar,TUxBQ0VTQzQ3YTc0,Bs.As. G.B.A. Norte,TUxBUEdSQWU4ZDkz,Argentina,-34.40065,-58.764442,-34.44065,-34.36065,-58.804442,-58.724442
150,TUxBQlNBTjYzMzU1Nw,San Sebastián,Escobar,TUxBQ0VTQzQ3YTc0,Bs.As. G.B.A. Norte,TUxBUEdSQWU4ZDkz,Argentina,-34.344246,-58.88626,-34.384246,-34.304246,-58.92626,-58.84626
151,TUxBQlNBTjY1NDE4MQ,Santa Isabel,Escobar,TUxBQ0VTQzQ3YTc0,Bs.As. G.B.A. Norte,TUxBUEdSQWU4ZDkz,Argentina,-34.36898,-58.76199,-34.40898,-34.32898,-58.801989999999996,-58.72199
152,TUxBQlNBTjMyMDkyOA,Santa María Club de Campo,Escobar,TUxBQ0VTQzQ3YTc0,Bs.As. G.B.A. Norte,TUxBUEdSQWU4ZDkz,Argentina,-34.340614,-58.850418,-34.380614,-34.300614,-58.890418,-58.810418
153,TUxBQlNFUDg2MDEyNg,Septiembre,Escobar,TUxBQ0VTQzQ3YTc0,Bs.As. G.B.A. Norte,TUxBUEdSQWU4ZDkz,Argentina,-34.368225,-58.781918,-34.408225,-34.328225,-58.821918,-58.741918
154,TUxBQlZJTDkxOTMyMQ,Villa Olivos,Escobar,TUxBQ0VTQzQ3YTc0,Bs.As. G.B.A. Norte,TUxBUEdSQWU4ZDkz,Argentina,-34.446743,-58.727512,-34.486743,-34.406743,-58.767511999999996,-58.687512
155,TUxBQldFRTUxODI5MA,Weekend,Escobar,TUxBQ0VTQzQ3YTc0,Bs.As. G.B.A. Norte,TUxBUEdSQWU4ZDkz,Argentina,-34.370407,-58.773186,-34.410407,-34.330407,-58.813186,-58.733186
156,TUxBQllOQzc5MTM2OQ,Ynca Huasi,Escobar,TUxBQ0VTQzQ3YTc0,Bs.As. G.B.A. Norte,TUxBUEdSQWU4ZDkz,Argentina,-34.553207,-58.45376,-34.593207,-34.513207,-58.49376,-58.41376
157,TUxBQkJBUjcxNjha,Barrio Parque Gral San Martín,General San Martín,TUxBQ0dFTmVyYWxz,Bs.As. G.B.A. Norte,TUxBUEdSQWU4ZDkz,Argentina,-34.59426,-58.375378,-34.63426,-34.55426,-58.415378,-58.335378
158,TUxBQkJJTDk0MzZa,Billinghurst,General San Martín,TUxBQ0dFTmVyYWxz,Bs.As. G.B.A. Norte,TUxBUEdSQWU4ZDkz,Argentina,-34.5736823,-58.5698374,-34.6136823,-34.5336823,-58.609837399999996,-58.5298374
159,TUxBQkNJVTcxMDNa,Ciudad Jardín El Libertador,General San Martín,TUxBQ0dFTmVyYWxz,Bs.As. G.B.A. Norte,TUxBUEdSQWU4ZDkz,Argentina,-34.566667,-58.533333,-34.606667,-34.526667,-58.573333,-58.493333
160,TVhYTG9tYSBIZXJtb3NhVFV4QlEwZEZUbVZ5W,Loma Hermosa,General San Martín,TUxBQ0dFTmVyYWxz,Bs.As. G.B.A. Norte,TUxBUEdSQWU4ZDkz,Argentina,-34.5605065,-58.56581,-34.6005065,-34.5205065,-58.60581,-58.52581
161,TVhYU2FuIE1hcnTDrW4gQ2VudHJvVFV4QlEwZ,San Martín Centro,General San Martín,TUxBQ0dFTmVyYWxz,Bs.As. G.B.A. Norte,TUxBUEdSQWU4ZDkz,Argentina,-34.5605065,-58.56581,-34.6005065,-34.5205065,-58.60581,-58.52581
162,TUxBQlZJTDU1ODZa,Villa Ayacucho,General San Martín,TUxBQ0dFTmVyYWxz,Bs.As. G.B.A. Norte,TUxBUEdSQWU4ZDkz,Argentina,-34.589436,-58.55503,-34.629436,-34.549436,-58.59503,-58.51503
163,TUxBQlZJTDE0Nzha,Villa Ballester,General San Martín,TUxBQ0dFTmVyYWxz,Bs.As. G.B.A. Norte,TUxBUEdSQWU4ZDkz,Argentina,-34.5492357,-58.5588195,-34.589235699999996,-34.5092357,-58.5988195,-58.5188195
164,TUxBQlZJTDY4OTZa,Villa Bernardo Monteagudo,General San Martín,TUxBQ0dFTmVyYWxz,Bs.As. G.B.A. Norte,TUxBUEdSQWU4ZDkz,Argentina,-34.5911,-58.5392,-34.631099999999996,-34.5511,-58.5792,-58.4992
165,TVhYVmlsbGEgQm9uaWNoVFV4QlEwZEZUbVZ5W,Villa Bonich,General San Martín,TUxBQ0dFTmVyYWxz,Bs.As. G.B.A. Norte,TUxBUEdSQWU4ZDkz,Argentina,-34.5767639,-58.5700171,-34.6167639,-34.536763900000004,-58.6100171,-58.5300171
166,TUxBQlZJTDY1Mjha,Villa Chacabuco,General San Martín,TUxBQ0dFTmVyYWxz,Bs.As. G.B.A. Norte,TUxBUEdSQWU4ZDkz,Argentina,-34.591923,-58.533485,-34.631923,-34.551923,-58.573485,-58.493485
167,TUxBQlZJTDYxNDha,Villa Coronel José M. Zapiola,General San Martín,TUxBQ0dFTmVyYWxz,Bs.As. G.B.A. Norte,TUxBUEdSQWU4ZDkz,Argentina,-34.5578,-58.5811,-34.5978,-34.5178,-58.6211,-58.5411
168,TUxBQlZJTDI1NzRa,Villa General Antonio J. de Sucre,General San Martín,TUxBQ0dFTmVyYWxz,Bs.As. G.B.A. Norte,TUxBUEdSQWU4ZDkz,Argentina,-34.5447,-58.57,-34.5847,-34.5047,-58.61,-58.53
169,TUxBQlZJTDY5NjZa,Villa General Eugenio Necochea,General San Martín,TUxBQ0dFTmVyYWxz,Bs.As. G.B.A. Norte,TUxBUEdSQWU4ZDkz,Argentina,-34.4989,-58.5894,-34.5389,-34.4589,-58.6294,-58.5494
170,TUxBQlZJTDk4OTNa,Villa General José Tomás Guido,General San Martín,TUxBQ0dFTmVyYWxz,Bs.As. G.B.A. Norte,TUxBUEdSQWU4ZDkz,Argentina,-34.5542,-58.5647,-34.5942,-34.5142,-58.6047,-58.5247
171,TUxBQlZJTDI4NzFa,Villa General Juan G. Las Heras,General San Martín,TUxBQ0dFTmVyYWxz,Bs.As. G.B.A. Norte,TUxBUEdSQWU4ZDkz,Argentina,-34.5606,-58.5564,-34.6006,-34.5206,-58.596399999999996,-58.5164
172,TUxBQlZJTDc5NTBa,Villa Godoy Cruz,General San Martín,TUxBQ0dFTmVyYWxz,Bs.As. G.B.A. Norte,TUxBUEdSQWU4ZDkz,Argentina,-34.60024,-58.51914,-34.64024,-34.56024,-58.55914,-58.47914
173,TUxBQlZJTDMwMjFa,Villa Granaderos de San Martín,General San Martín,TUxBQ0dFTmVyYWxz,Bs.As. G.B.A. Norte,TUxBUEdSQWU4ZDkz,Argentina,-34.5759506,-58.5372696,-34.6159506,-34.5359506,-58.5772696,-58.4972696
174,TUxBQlZJTDgxMzha,Villa Gregoria Matorras,General San Martín,TUxBQ0dFTmVyYWxz,Bs.As. G.B.A. Norte,TUxBUEdSQWU4ZDkz,Argentina,-34.5417,-58.5411,-34.5817,-34.5017,-58.5811,-58.5011
175,TUxBQlZJTDQxNTla,Villa José León Suárez,General San Martín,TUxBQ0dFTmVyYWxz,Bs.As. G.B.A. Norte,TUxBUEdSQWU4ZDkz,Argentina,-34.529389,-58.5734048,-34.569389,-34.489389,-58.6134048,-58.5334048
176,TUxBQlZJTDU2MDBa,Villa Juan Martín de Pueyrredón,General San Martín,TUxBQ0dFTmVyYWxz,Bs.As. G.B.A. Norte,TUxBUEdSQWU4ZDkz,Argentina,-34.574387,-58.565792,-34.614387,-34.534387,-58.605792,-58.525792
177,TUxBQlZJTDQ0NTda,Villa Libertad,General San Martín,TUxBQ0dFTmVyYWxz,Bs.As. G.B.A. Norte,TUxBUEdSQWU4ZDkz,Argentina,-34.588654,-58.561695,-34.628654,-34.548654,-58.601695,-58.521695
178,TUxBQlZJTDg5NDBa,Villa Lynch,General San Martín,TUxBQ0dFTmVyYWxz,Bs.As. G.B.A. Norte,TUxBUEdSQWU4ZDkz,Argentina,-34.587664,-58.5320001,-34.627663999999996,-34.547664,-58.5720001,-58.4920001
179,TUxBQlZJTDgxODha,Villa Maipú,General San Martín,TUxBQ0dFTmVyYWxz,Bs.As. G.B.A. Norte,TUxBUEdSQWU4ZDkz,Argentina,-34.5687326,-58.5202126,-34.608732599999996,-34.5287326,-58.5602126,-58.4802126
180,TUxBQlZJTDE0MDZa,Villa Marqués Alejandro María de Aguado,General San Martín,TUxBQ0dFTmVyYWxz,Bs.As. G.B.A. Norte,TUxBUEdSQWU4ZDkz,Argentina,-34.56732,-58.555214,-34.60732,-34.52732,-58.595214,-58.515214
181,TUxBQlZJTDQ3Mjda,Villa María Irene de los Remedios de Escalada,General San Martín,TUxBQ0dFTmVyYWxz,Bs.As. G.B.A. Norte,TUxBUEdSQWU4ZDkz,Argentina,-34.5644,-58.5922,-34.6044,-34.5244,-58.6322,-58.5522
182,TUxBQlZJTDU5NjVa,Villa Parque Presidente Figueroa Alcorta,General San Martín,TUxBQ0dFTmVyYWxz,Bs.As. G.B.A. Norte,TUxBUEdSQWU4ZDkz,Argentina,-34.5928,-58.5314,-34.632799999999996,-34.5528,-58.5714,-58.4914
183,TUxBQlZJTDQxNTNa,Villa Parque San Lorenzo,General San Martín,TUxBQ0dFTmVyYWxz,Bs.As. G.B.A. Norte,TUxBUEdSQWU4ZDkz,Argentina,-34.567818,-58.55041,-34.607818,-34.527818,-58.59041,-58.51041
184,TUxBQlZJTDM3NTFa,Villa San Andrés,General San Martín,TUxBQ0dFTmVyYWxz,Bs.As. G.B.A. Norte,TUxBUEdSQWU4ZDkz,Argentina,-34.5564986,-58.5361078,-34.5964986,-34.5164986,-58.5761078,-58.496107800000004
185,TUxBQlZJTDE5NTla,Villa Yapeyú,General San Martín,TUxBQ0dFTmVyYWxz,Bs.As. G.B.A. Norte,TUxBUEdSQWU4ZDkz,Argentina,-34.577667,-58.533165,-34.617667,-34.537667,-58.573164999999996,-58.493165
186,TUxBQkJBUjQ5MjEzNQ,Barrio Parque Peró,José C. Paz,TUxBQ0pPU2VjcGF6,Bs.As. G.B.A. Norte,TUxBUEdSQWU4ZDkz,Argentina,-34.469814,-58.80358,-34.509814,-34.429814,-58.843579999999996,-58.76358
187,TUxBQkNPUjYwMTgxNw,Corral del Sol,José C. Paz,TUxBQ0pPU2VjcGF6,Bs.As. G.B.A. Norte,TUxBUEdSQWU4ZDkz,Argentina,-31.55,-58.75,-31.59,-31.51,-58.79,-58.71
188,TUxBQkRFTDg5MzVa,Del Viso,José C. Paz,TUxBQ0pPU2VjcGF6,Bs.As. G.B.A. Norte,TUxBUEdSQWU4ZDkz,Argentina,-34.4792247,-58.799672,-34.5192247,-34.439224700000004,-58.839672,-58.759672
189,TUxBQkdBTDcxOTczMA,Galápagos C.C,José C. Paz,TUxBQ0pPU2VjcGF6,Bs.As. G.B.A. Norte,TUxBUEdSQWU4ZDkz,Argentina,-34.435904,-58.766063,-34.475904,-34.395904,-58.806063,-58.726063
190,TUxBQkdPTDg5Njc1MA,Golf Club Argentino,José C. Paz,TUxBQ0pPU2VjcGF6,Bs.As. G.B.A. Norte,TUxBUEdSQWU4ZDkz,Argentina,-34.4795,-58.795456,-34.5195,-34.4395,-58.835456,-58.755456
191,TUxBQkpPUzE2MjZa,José C. Paz,José C. Paz,TUxBQ0pPU2VjcGF6,Bs.As. G.B.A. Norte,TUxBUEdSQWU4ZDkz,Argentina,-34.5151052,-58.7662461,-34.5551052,-34.4751052,-58.806246099999996,-58.7262461
192,TUxBQlRPUjcyNTNa,Tortuguitas,José C. Paz,TUxBQ0pPU2VjcGF6,Bs.As. G.B.A. Norte,TUxBUEdSQWU4ZDkz,Argentina,-34.4959635,-58.7882658,-34.5359635,-34.4559635,-58.8282658,-58.7482658
193,TVhYQmFycmlvIExvcyBQYXJhw61zb3NUVmhZV,Barrio Los Paraísos,Los Cardales,TVhYTG9zIENhcmRhbGVzVFV4QlVFZFNRV1U0W,Bs.As. G.B.A. Norte,TUxBUEdSQWU4ZDkz,Argentina,-34.3223876,-58.9786465,-34.3623876,-34.2823876,-59.0186465,-58.938646500000004
194,TUxBQkFSRTQ1NTha,Area de Promoción El Triángulo,Malvinas Argentinas,TUxBQ01BTHZpbmFz,Bs.As. G.B.A. Norte,TUxBUEdSQWU4ZDkz,Argentina,-34.4546819,-58.706394,-34.494681899999996,-34.4146819,-58.746394,-58.666394000000004
195,TUxBQkFSRzkwODI5MQ,Argentino Golf Club,Malvinas Argentinas,TUxBQ01BTHZpbmFz,Bs.As. G.B.A. Norte,TUxBUEdSQWU4ZDkz,Argentina,-34.4795,-58.795456,-34.5195,-34.4395,-58.835456,-58.755456
196,TUxBQkJBUjY5MDUxNw,Barrio Parque Pero,Malvinas Argentinas,TUxBQ01BTHZpbmFz,Bs.As. G.B.A. Norte,TUxBUEdSQWU4ZDkz,Argentina,-34.57601,-58.39989,-34.616009999999996,-34.53601,-58.43989,-58.35989
197,TUxBQkNVQjI2MTAyNg,CUBA,Malvinas Argentinas,TUxBQ01BTHZpbmFz,Bs.As. G.B.A. Norte,TUxBUEdSQWU4ZDkz,Argentina,-34.50718,-58.68563,-34.54718,-34.46718,-58.72563,-58.645630000000004
198,TUxBQkNVQjM5NjgyOA,Cuba Country Villa de Mayo,Malvinas Argentinas,TUxBQ01BTHZpbmFz,Bs.As. G.B.A. Norte,TUxBUEdSQWU4ZDkz,Argentina,-34.50718,-58.68563,-34.54718,-34.46718,-58.72563,-58.645630000000004
199,TUxBQkVMRjUxMDM2MA,El Florido Barrio Parque,Malvinas Argentinas,TUxBQ01BTHZpbmFz,Bs.As. G.B.A. Norte,TUxBUEdSQWU4ZDkz,Argentina,-34.4949232,-58.6928386,-34.5349232,-34.4549232,-58.7328386,-58.6528386
200,TUxBQkdSQTMyNTla,Grand Bourg,Malvinas Argentinas,TUxBQ01BTHZpbmFz,Bs.As. G.B.A. Norte,TUxBUEdSQWU4ZDkz,Argentina,-34.4865685,-58.7290039,-34.526568499999996,-34.4465685,-58.7690039,-58.6890039
201,TUxBQklORzYyODFa,Ingeniero Adolfo Sourdeaux,Malvinas Argentinas,TUxBQ01BTHZpbmFz,Bs.As. G.B.A. Norte,TUxBUEdSQWU4ZDkz,Argentina,-34.50126,-58.6601456,-34.54126,-34.46126,-58.7001456,-58.6201456
202,TUxBQklORzYyNDNa,Ingeniero Pablo Nogués,Malvinas Argentinas,TUxBQ01BTHZpbmFz,Bs.As. G.B.A. Norte,TUxBUEdSQWU4ZDkz,Argentina,-34.4785687,-58.7057233,-34.518568699999996,-34.4385687,-58.7457233,-58.6657233
203,TUxBQkxBUzM2NTQwOA,Las Beatrices,Malvinas Argentinas,TUxBQ01BTHZpbmFz,Bs.As. G.B.A. Norte,TUxBUEdSQWU4ZDkz,Argentina,-34.515358,-58.69205,-34.555358,-34.475358,-58.73205,-58.65205
204,TUxBQkxBUzc4Nzc2NA,Las Magnolias,Malvinas Argentinas,TUxBQ01BTHZpbmFz,Bs.As. G.B.A. Norte,TUxBUEdSQWU4ZDkz,Argentina,-34.82101,-58.4317,-34.86101,-34.78101,-58.4717,-58.3917
205,TUxBQkxPUzE4ODM4OA,Los Abedules,Malvinas Argentinas,TUxBQ01BTHZpbmFz,Bs.As. G.B.A. Norte,TUxBUEdSQWU4ZDkz,Argentina,-34.47357,-58.71097,-34.51357,-34.43357,-58.75097,-58.670970000000004
206,TUxBQkxPUzk1Njk3Ng,Los Abedules I,Malvinas Argentinas,TUxBQ01BTHZpbmFz,Bs.As. G.B.A. Norte,TUxBUEdSQWU4ZDkz,Argentina,-34.47357,-58.71097,-34.51357,-34.43357,-58.75097,-58.670970000000004
207,TUxBQkxPUzEzMDg3MQ,Los Abedules II,Malvinas Argentinas,TUxBQ01BTHZpbmFz,Bs.As. G.B.A. Norte,TUxBUEdSQWU4ZDkz,Argentina,-34.420896,-58.703868,-34.460896,-34.380896,-58.743868,-58.663868
208,TUxBQkxPUzYxMjM2Ng,Los Olivares,Malvinas Argentinas,TUxBQ01BTHZpbmFz,Bs.As. G.B.A. Norte,TUxBUEdSQWU4ZDkz,Argentina,-34.47583,-58.71376,-34.51583,-34.43583,-58.75376,-58.67376
209,TUxBQkxPUzc0MTVa,Los Polvorines,Malvinas Argentinas,TUxBQ01BTHZpbmFz,Bs.As. G.B.A. Norte,TUxBUEdSQWU4ZDkz,Argentina,-34.5067101,-58.7059135,-34.5467101,-34.4667101,-58.7459135,-58.6659135
210,TUxBQk1BTDQ3MjFa,Malvinas Argentinas,Malvinas Argentinas,TUxBQ01BTHZpbmFz,Bs.As. G.B.A. Norte,TUxBUEdSQWU4ZDkz,Argentina,-34.529552,-58.699776,-34.569552,-34.489552,-58.739776,-58.659776
211,TUxBQk9MSTI3Njg5Mw,Olivos Golf Club,Malvinas Argentinas,TUxBQ01BTHZpbmFz,Bs.As. G.B.A. Norte,TUxBUEdSQWU4ZDkz,Argentina,-34.464733,-58.69946,-34.504733,-34.424733,-58.73946,-58.65946
212,TUxBQlNBTjY4OTM2MQ,San Carlos,Malvinas Argentinas,TUxBQ01BTHZpbmFz,Bs.As. G.B.A. Norte,TUxBUEdSQWU4ZDkz,Argentina,-34.47321,-58.68466,-34.51321,-34.43321,-58.72466,-58.64466
213,TUxBQlNBTjMxNjI3Ng,San Jorge Village,Malvinas Argentinas,TUxBQ01BTHZpbmFz,Bs.As. G.B.A. Norte,TUxBUEdSQWU4ZDkz,Argentina,-34.488464,-58.677803,-34.528464,-34.448464,-58.717802999999996,-58.637803
214,TUxBQlNBTjIwOTI4NA,Santa María de los Olivos,Malvinas Argentinas,TUxBQ01BTHZpbmFz,Bs.As. G.B.A. Norte,TUxBUEdSQWU4ZDkz,Argentina,-34.47214,-58.71377,-34.51214,-34.432140000000004,-58.753769999999996,-58.67377
215,TVhYVG9ydHVndWl0YXNUVXhCUTAxQlRIWnBib,Tortuguitas,Malvinas Argentinas,TUxBQ01BTHZpbmFz,Bs.As. G.B.A. Norte,TUxBUEdSQWU4ZDkz,Argentina,-34.45109,-58.72543,-34.49109,-34.41109,-58.76543,-58.685430000000004
216,TUxBQlRPVTIzMzc2OQ,Touring,Malvinas Argentinas,TUxBQ01BTHZpbmFz,Bs.As. G.B.A. Norte,TUxBUEdSQWU4ZDkz,Argentina,-34.49476,-58.752842,-34.53476,-34.45476,-58.792842,-58.712842
217,TUxBQlZJTDM3MDBa,Villa de Mayo,Malvinas Argentinas,TUxBQ01BTHZpbmFz,Bs.As. G.B.A. Norte,TUxBUEdSQWU4ZDkz,Argentina,-34.5088157,-58.6794491,-34.5488157,-34.4688157,-58.7194491,-58.6394491
218,TVhYNDYgUGxhemFUVXhCUTFCSlRHRnlNVEl6,46 Plaza,Pilar,TUxBQ1BJTGFyMTIz,Bs.As. G.B.A. Norte,TUxBUEdSQWU4ZDkz,Argentina,-34.4646213,-58.8977058,-34.5046213,-34.4246213,-58.937705799999996,-58.8577058
219,TUxBQkFHTzg2NTMwNw,Agosto,Pilar,TUxBQ1BJTGFyMTIz,Bs.As. G.B.A. Norte,TUxBUEdSQWU4ZDkz,Argentina,-34.439056,-58.797226,-34.479056,-34.399056,-58.837226,-58.757226
220,TUxBQkFMVDE5Mzg0NA,Alto del Molino,Pilar,TUxBQ1BJTGFyMTIz,Bs.As. G.B.A. Norte,TUxBUEdSQWU4ZDkz,Argentina,-34.43137,-58.84101,-34.47137,-34.39137,-58.881009999999996,-58.80101
221,TVhYQWx0b3MgZGUgQ2FtcG9UVXhCUTFCSlRHR,Altos de Campo,Pilar,TUxBQ1BJTGFyMTIz,Bs.As. G.B.A. Norte,TUxBUEdSQWU4ZDkz,Argentina,-34.4646213,-58.8977058,-34.5046213,-34.4246213,-58.937705799999996,-58.8577058
222,TVhYQWx0b3MgZGUgQ2FtcG8gR3JhbmRlVFV4Q,Altos de Campo Grande,Pilar,TUxBQ1BJTGFyMTIz,Bs.As. G.B.A. Norte,TUxBUEdSQWU4ZDkz,Argentina,-34.4646213,-58.8977058,-34.5046213,-34.4246213,-58.937705799999996,-58.8577058
223,TUxBQkFMVDU0MzkzMw,Altos de Manzanares,Pilar,TUxBQ1BJTGFyMTIz,Bs.As. G.B.A. Norte,TUxBUEdSQWU4ZDkz,Argentina,-34.448673,-58.995583,-34.488673,-34.408673,-59.035583,-58.955583000000004
224,TUxBQkFMVDI1MDAxNg,Altos del Barranco,Pilar,TUxBQ1BJTGFyMTIz,Bs.As. G.B.A. Norte,TUxBUEdSQWU4ZDkz,Argentina,-34.449024,-58.758495,-34.489024,-34.409024,-58.798495,-58.718495000000004
225,TUxBQkFMVDY0ODA4OA,Altos del Golf,Pilar,TUxBQ1BJTGFyMTIz,Bs.As. G.B.A. Norte,TUxBUEdSQWU4ZDkz,Argentina,-34.465942,-58.82698,-34.505942,-34.425942,-58.86698,-58.78698
226,TUxBQkFMVDM2MzI2MA,Altos del Golf Aranjuez,Pilar,TUxBQ1BJTGFyMTIz,Bs.As. G.B.A. Norte,TUxBUEdSQWU4ZDkz,Argentina,-34.3731709,-58.7709895,-34.4131709,-34.3331709,-58.8109895,-58.7309895
227,TUxBQkFMVDk5MjI1Mw,Altos del Pilar,Pilar,TUxBQ1BJTGFyMTIz,Bs.As. G.B.A. Norte,TUxBUEdSQWU4ZDkz,Argentina,-34.45587,-58.863956,-34.49587,-34.41587,-58.903956,-58.823956
228,TUxBQkFMVDI2MDIzMA,Altos del Trebolar,Pilar,TUxBQ1BJTGFyMTIz,Bs.As. G.B.A. Norte,TUxBUEdSQWU4ZDkz,Argentina,-34.43804,-58.80385,-34.47804,-34.39804,-58.843849999999996,-58.76385
229,TUxBQkFQQTI0Mzg2NA,Apart del Pinazo,Pilar,TUxBQ1BJTGFyMTIz,Bs.As. G.B.A. Norte,TUxBUEdSQWU4ZDkz,Argentina,-34.43353,-58.832047,-34.47353,-34.39353,-58.872047,-58.792047000000004
230,TUxBQkFSQzU4NDMxNQ,Arcos del Pilar,Pilar,TUxBQ1BJTGFyMTIz,Bs.As. G.B.A. Norte,TUxBUEdSQWU4ZDkz,Argentina,-34.46047,-58.918056,-34.50047,-34.42047,-58.958056,-58.878056
231,TVhYQXJnZW50aW5vIEdvbGYgQ2x1YlRVeEJRM,Argentino Golf Club,Pilar,TUxBQ1BJTGFyMTIz,Bs.As. G.B.A. Norte,TUxBUEdSQWU4ZDkz,Argentina,-34.4646213,-58.8977058,-34.5046213,-34.4246213,-58.937705799999996,-58.8577058
232,TUxBQkFSTTQ2MjA0OA,Armenia,Pilar,TUxBQ1BJTGFyMTIz,Bs.As. G.B.A. Norte,TUxBUEdSQWU4ZDkz,Argentina,-34.426487,-58.797573,-34.466487,-34.386487,-58.837573,-58.757573
233,TVhYQXN0b24gVmlsbGFnZVRVeEJRMUJKVEdGe,Aston Village,Pilar,TUxBQ1BJTGFyMTIz,Bs.As. G.B.A. Norte,TUxBUEdSQWU4ZDkz,Argentina,-34.4300641,-58.8827218,-34.4700641,-34.390064100000004,-58.9227218,-58.8427218
234,TUxBQkFUTDUxNDU2MQ,Atlético Pilar,Pilar,TUxBQ1BJTGFyMTIz,Bs.As. G.B.A. Norte,TUxBUEdSQWU4ZDkz,Argentina,-34.455,-58.888584,-34.495,-34.415,-58.928584,-58.848584
235,TUxBQkFVRzE2MjExMQ,Augusta,Pilar,TUxBQ1BJTGFyMTIz,Bs.As. G.B.A. Norte,TUxBUEdSQWU4ZDkz,Argentina,-34.443982,-58.8722977,-34.483982,-34.403982,-58.912297699999996,-58.8322977
236,TVhYQXlyZXMgTG9mdFRVeEJRMUJKVEdGeU1US,Ayres Loft,Pilar,TUxBQ1BJTGFyMTIz,Bs.As. G.B.A. Norte,TUxBUEdSQWU4ZDkz,Argentina,-34.4352267,-58.7944467,-34.4752267,-34.3952267,-58.8344467,-58.7544467
237,TVhYQXlyZXMgUGxhemFUVXhCUTFCSlRHRnlNV,Ayres Plaza,Pilar,TUxBQ1BJTGFyMTIz,Bs.As. G.B.A. Norte,TUxBUEdSQWU4ZDkz,Argentina,-34.438309,-58.837283,-34.478308999999996,-34.398309,-58.877283,-58.797283
238,TUxBQkFZUjI0NzY2Ng,Ayres del Pilar,Pilar,TUxBQ1BJTGFyMTIz,Bs.As. G.B.A. Norte,TUxBUEdSQWU4ZDkz,Argentina,-34.436417,-58.80077,-34.476417,-34.396417,-58.84077,-58.76077
239,TUxBQkJBUjEzOTcxNQ,Barrio Nuevo Pilar,Pilar,TUxBQ1BJTGFyMTIz,Bs.As. G.B.A. Norte,TUxBUEdSQWU4ZDkz,Argentina,-34.459217,-58.967346,-34.499217,-34.419217,-59.007346,-58.927346
240,TUxBQkJBUjY0ODI2Ng,Barrio Parque del Viso,Pilar,TUxBQ1BJTGFyMTIz,Bs.As. G.B.A. Norte,TUxBUEdSQWU4ZDkz,Argentina,-34.610172,-58.38826,-34.650172,-34.570172,-58.42826,-58.34826
241,TUxBQkJBUjY4MDUxNQ,Barrio San Antonio,Pilar,TUxBQ1BJTGFyMTIz,Bs.As. G.B.A. Norte,TUxBUEdSQWU4ZDkz,Argentina,-34.442917,-58.972828,-34.482917,-34.402917,-59.012828,-58.932828
242,TUxBQkJFUjExOTEwNw,Bermudas,Pilar,TUxBQ1BJTGFyMTIz,Bs.As. G.B.A. Norte,TUxBUEdSQWU4ZDkz,Argentina,-34.453087,-58.91007,-34.493086999999996,-34.413087,-58.95007,-58.87007
243,TUxBQkJPQzg0MTE3Mw,Boca Raton,Pilar,TUxBQ1BJTGFyMTIz,Bs.As. G.B.A. Norte,TUxBUEdSQWU4ZDkz,Argentina,-34.54582,-58.859406,-34.58582,-34.50582,-58.899406,-58.819406
244,TUxBQkJPUzI1MDM0MQ,Bosque Chico,Pilar,TUxBQ1BJTGFyMTIz,Bs.As. G.B.A. Norte,TUxBUEdSQWU4ZDkz,Argentina,-34.43755,-58.737644,-34.47755,-34.39755,-58.777644,-58.697644000000004
245,Qm91bGV2YXJkIGRlbCBTb2xUVXhCUTFCSlRHRnlN,Boulevard del Sol,Pilar,TUxBQ1BJTGFyMTIz,Bs.As. G.B.A. Norte,TUxBUEdSQWU4ZDkz,Argentina,-34.426674,-58.836586,-34.466674,-34.386674,-58.876585999999996,-58.796586
246,TUxBQkJPVTEzMjgzOQ,Boulevares,Pilar,TUxBQ1BJTGFyMTIz,Bs.As. G.B.A. Norte,TUxBUEdSQWU4ZDkz,Argentina,-34.442703,-58.82467,-34.482703,-34.402703,-58.86467,-58.78467
247,TVhYQm91cXVldFRVeEJRMUJKVEdGeU1USXo,Bouquet,Pilar,TUxBQ1BJTGFyMTIz,Bs.As. G.B.A. Norte,TUxBUEdSQWU4ZDkz,Argentina,-34.4358978,-58.775875,-34.4758978,-34.3958978,-58.815875,-58.735875
248,TUxBQkJSVTcyMzA5NQ,Brujas,Pilar,TUxBQ1BJTGFyMTIz,Bs.As. G.B.A. Norte,TUxBUEdSQWU4ZDkz,Argentina,-34.46144,-58.911823,-34.50144,-34.421440000000004,-58.951823,-58.871823
249,TUxBQkJVRTU3ODkzMQ,Buen Retiro,Pilar,TUxBQ1BJTGFyMTIz,Bs.As. G.B.A. Norte,TUxBUEdSQWU4ZDkz,Argentina,-34.58484,-58.43321,-34.62484,-34.54484,-58.47321,-58.39321
250,TUxBQkNVQjE2NTgxNA,CUBA Fátima,Pilar,TUxBQ1BJTGFyMTIz,Bs.As. G.B.A. Norte,TUxBUEdSQWU4ZDkz,Argentina,-34.43061,-58.983006,-34.47061,-34.39061,-59.023006,-58.943006000000004
251,TUxBQkNBTDI3NDMxMw,California Village,Pilar,TUxBQ1BJTGFyMTIz,Bs.As. G.B.A. Norte,TUxBUEdSQWU4ZDkz,Argentina,-34.441895,-58.872326,-34.481895,-34.401895,-58.912326,-58.832326
252,TUxBQkNBTTQ2MTA0NQ,Campo Argentino de Golf,Pilar,TUxBQ1BJTGFyMTIz,Bs.As. G.B.A. Norte,TUxBUEdSQWU4ZDkz,Argentina,-34.4795,-58.795456,-34.5195,-34.4395,-58.835456,-58.755456
253,TUxBQkNBTTQxNDk4NA,Campo Chico,Pilar,TUxBQ1BJTGFyMTIz,Bs.As. G.B.A. Norte,TUxBUEdSQWU4ZDkz,Argentina,-34.415565,-58.825733,-34.455565,-34.375565,-58.865733,-58.785733
254,TUxBQkNBTTgxMjc0OQ,Campo Grande,Pilar,TUxBQ1BJTGFyMTIz,Bs.As. G.B.A. Norte,TUxBUEdSQWU4ZDkz,Argentina,-34.414818,-58.826866,-34.454817999999996,-34.374818,-58.866866,-58.786866
255,TVhYQ2FtcHVzIFZpc3RhVFV4QlExQkpUR0Z5T,Campus Vista,Pilar,TUxBQ1BJTGFyMTIz,Bs.As. G.B.A. Norte,TUxBUEdSQWU4ZDkz,Argentina,-34.4612523,-58.8545795,-34.5012523,-34.4212523,-58.8945795,-58.8145795
256,TUxBQkNBUjM0NjEzNw,Carmel,Pilar,TUxBQ1BJTGFyMTIz,Bs.As. G.B.A. Norte,TUxBUEdSQWU4ZDkz,Argentina,-34.440815,-58.935753,-34.480815,-34.400815,-58.975753,-58.895753
257,TUxBQkNBUzM0OTE3OQ,Casablanca,Pilar,TUxBQ1BJTGFyMTIz,Bs.As. G.B.A. Norte,TUxBUEdSQWU4ZDkz,Argentina,-34.502132,-58.885826,-34.542132,-34.462132000000004,-58.925826,-58.845826
258,TUxBQkNBUzI3NjE0Nw,Casas del Alto,Pilar,TUxBQ1BJTGFyMTIz,Bs.As. G.B.A. Norte,TUxBUEdSQWU4ZDkz,Argentina,-34.44413,-58.976673,-34.48413,-34.40413,-59.016673,-58.936673
259,TUxBQkNBUzM3NjA0Ng,Casas del Bosque,Pilar,TUxBQ1BJTGFyMTIz,Bs.As. G.B.A. Norte,TUxBUEdSQWU4ZDkz,Argentina,-34.4556253,-58.8352221,-34.4956253,-34.4156253,-58.8752221,-58.795222100000004
260,TUxBQkNBUzU3MzI0Ng,Casas del Prado,Pilar,TUxBQ1BJTGFyMTIz,Bs.As. G.B.A. Norte,TUxBUEdSQWU4ZDkz,Argentina,-34.4450279,-58.8338533,-34.4850279,-34.4050279,-58.8738533,-58.7938533
261,TUxBQkNBUzE0NTc1Ng,Casuarinas del Pilar,Pilar,TUxBQ1BJTGFyMTIz,Bs.As. G.B.A. Norte,TUxBUEdSQWU4ZDkz,Argentina,-34.392315,-58.875385,-34.432315,-34.352315000000004,-58.915385,-58.835385
262,TUxBQkNIQTY0MDMyMA,Chacras de Murray,Pilar,TUxBQ1BJTGFyMTIz,Bs.As. G.B.A. Norte,TUxBUEdSQWU4ZDkz,Argentina,-34.513935,-58.92444,-34.553934999999996,-34.473935,-58.964439999999996,-58.88444
263,TUxBQkNIQTIzMTc5OQ,Chacras del Pilar,Pilar,TUxBQ1BJTGFyMTIz,Bs.As. G.B.A. Norte,TUxBUEdSQWU4ZDkz,Argentina,-34.509766,-58.9409,-34.549766,-34.469766,-58.9809,-58.9009
264,TUxBQkNIQTI1MDk1OA,Champagnat,Pilar,TUxBQ1BJTGFyMTIz,Bs.As. G.B.A. Norte,TUxBUEdSQWU4ZDkz,Argentina,-34.442444,-58.923428,-34.482444,-34.402444,-58.963428,-58.883428
265,TVhYQ2x1YiBCYW1ib29UVXhCUTFCSlRHRnlNV,Club Bamboo,Pilar,TUxBQ1BJTGFyMTIz,Bs.As. G.B.A. Norte,TUxBUEdSQWU4ZDkz,Argentina,-34.4113437,-58.8487923,-34.4513437,-34.371343700000004,-58.8887923,-58.8087923
266,TUxBQkNMVTY1Mzla,Club de Campo Larena - Los Quinchos,Pilar,TUxBQ1BJTGFyMTIz,Bs.As. G.B.A. Norte,TUxBUEdSQWU4ZDkz,Argentina,-34.38462,-59.00388,-34.42462,-34.34462,-59.04388,-58.96388
267,TUxBQkNMVTU0NzUxNg,Club de Campo Mayling,Pilar,TUxBQ1BJTGFyMTIz,Bs.As. G.B.A. Norte,TUxBUEdSQWU4ZDkz,Argentina,-34.42919,-58.88024,-34.46919,-34.38919,-58.92024,-58.84024
268,TUxBQkNPTjQ0NDA5NA,Condominio Tortugas I y II,Pilar,TUxBQ1BJTGFyMTIz,Bs.As. G.B.A. Norte,TUxBUEdSQWU4ZDkz,Argentina,-34.448112,-58.74358,-34.488112,-34.408112,-58.78358,-58.70358
269,TVhYQ29uZG9taW5pbyBUb3J0dWdhcyBJSUkg4,Condominio Tortugas III – Quinta la Jimena,Pilar,TUxBQ1BJTGFyMTIz,Bs.As. G.B.A. Norte,TUxBUEdSQWU4ZDkz,Argentina,-34.445051,-58.7940283,-34.485051,-34.405051,-58.8340283,-58.7540283
270,TUxBQkNPVTYyNjla,Country Club El Jagüel,Pilar,TUxBQ1BJTGFyMTIz,Bs.As. G.B.A. Norte,TUxBUEdSQWU4ZDkz,Argentina,-34.400658,-59.020603,-34.440658,-34.360658,-59.060603,-58.980603
271,TVhYQ3Jpc3RhbGluZVRVeEJRMUJKVEdGeU1US,Cristaline,Pilar,TUxBQ1BJTGFyMTIz,Bs.As. G.B.A. Norte,TUxBUEdSQWU4ZDkz,Argentina,-34.4360081,-58.7970715,-34.4760081,-34.3960081,-58.8370715,-58.7570715
272,TUxBQkNVTTE2MzM0Nw,Cumbre de Rosas,Pilar,TUxBQ1BJTGFyMTIz,Bs.As. G.B.A. Norte,TUxBUEdSQWU4ZDkz,Argentina,-34.418251,-58.8682767,-34.458251,-34.378251,-58.9082767,-58.8282767
273,TUxBQkRFTDI4MzUyMg,De Las Quintas,Pilar,TUxBQ1BJTGFyMTIz,Bs.As. G.B.A. Norte,TUxBUEdSQWU4ZDkz,Argentina,-34.45626,-58.80281,-34.49626,-34.41626,-58.84281,-58.76281
274,TUxBQkRFVjI0NzQ2NA,De Vicenzo C.C.,Pilar,TUxBQ1BJTGFyMTIz,Bs.As. G.B.A. Norte,TUxBUEdSQWU4ZDkz,Argentina,-34.44617,-58.767106,-34.48617,-34.40617,-58.807106,-58.727106
275,TVhYRGVsIFZpc29UVXhCUTFCSlRHRnlNVEl6,Del Viso,Pilar,TUxBQ1BJTGFyMTIz,Bs.As. G.B.A. Norte,TUxBUEdSQWU4ZDkz,Argentina,-34.45,-58.8019,-34.49,-34.410000000000004,-58.8419,-58.761900000000004
276,TVhYRWNvYWxkZWFUVXhCUTFCSlRHRnlNVEl6,Ecoaldea,Pilar,TUxBQ1BJTGFyMTIz,Bs.As. G.B.A. Norte,TUxBUEdSQWU4ZDkz,Argentina,-34.4646213,-58.8977058,-34.5046213,-34.4246213,-58.937705799999996,-58.8577058
277,TUxBQkVMQTk2NjE5OQ,El Alazán,Pilar,TUxBQ1BJTGFyMTIz,Bs.As. G.B.A. Norte,TUxBUEdSQWU4ZDkz,Argentina,-34.392487,-58.966053,-34.432487,-34.352487,-59.006053,-58.926053
278,TVhYRWwgQWxqaWJlVFV4QlExQkpUR0Z5TVRJe,El Aljibe,Pilar,TUxBQ1BJTGFyMTIz,Bs.As. G.B.A. Norte,TUxBUEdSQWU4ZDkz,Argentina,-34.445428,-58.97512,-34.485428,-34.405428,-59.015119999999996,-58.93512
279,TUxBQkVMQjExNTk2OQ,El Barranco,Pilar,TUxBQ1BJTGFyMTIz,Bs.As. G.B.A. Norte,TUxBUEdSQWU4ZDkz,Argentina,-34.452084,-58.756836,-34.492084,-34.412084,-58.796836,-58.716836
280,TUxBQkVMQjMzMTkyMA,El Boulevard,Pilar,TUxBQ1BJTGFyMTIz,Bs.As. G.B.A. Norte,TUxBUEdSQWU4ZDkz,Argentina,-34.58484,-58.43321,-34.62484,-34.54484,-58.47321,-58.39321
281,TUxBQkVMQzY5MjI3Ng,El Castro,Pilar,TUxBQ1BJTGFyMTIz,Bs.As. G.B.A. Norte,TUxBUEdSQWU4ZDkz,Argentina,-34.467484,-58.916176,-34.507484,-34.427484,-58.956176,-58.876176
282,TUxBQkVMRTY2MTc5Mw,El Establo,Pilar,TUxBQ1BJTGFyMTIz,Bs.As. G.B.A. Norte,TUxBUEdSQWU4ZDkz,Argentina,-34.597343,-58.374165,-34.637343,-34.557343,-58.414165,-58.334165
283,TUxBQkVMRTUwOTY1OA,El Estribo,Pilar,TUxBQ1BJTGFyMTIz,Bs.As. G.B.A. Norte,TUxBUEdSQWU4ZDkz,Argentina,-34.449192,-58.92221,-34.489191999999996,-34.409192,-58.96221,-58.88221
284,TUxBQkVMSDM4ODE3OQ,El Hornero,Pilar,TUxBQ1BJTGFyMTIz,Bs.As. G.B.A. Norte,TUxBUEdSQWU4ZDkz,Argentina,-34.4477,-58.92091,-34.4877,-34.4077,-58.96091,-58.88091
285,TUxBQkVMTDk3OTQ3Mg,El Lucero,Pilar,TUxBQ1BJTGFyMTIz,Bs.As. G.B.A. Norte,TUxBUEdSQWU4ZDkz,Argentina,-34.445786,-58.928352,-34.485786,-34.405786,-58.968351999999996,-58.888352
286,TUxBQkVMTTk5ODQ1NQ,El Mirasol,Pilar,TUxBQ1BJTGFyMTIz,Bs.As. G.B.A. Norte,TUxBUEdSQWU4ZDkz,Argentina,-34.453705,-58.72782,-34.493705,-34.413705,-58.76782,-58.68782
287,TUxBQkVMTTQ4MzAxMA,El Molino,Pilar,TUxBQ1BJTGFyMTIz,Bs.As. G.B.A. Norte,TUxBUEdSQWU4ZDkz,Argentina,-34.43605,-58.83799,-34.47605,-34.39605,-58.87799,-58.79799
288,TUxBQkVMUDExNzA2Mw,El Patacón,Pilar,TUxBQ1BJTGFyMTIz,Bs.As. G.B.A. Norte,TUxBUEdSQWU4ZDkz,Argentina,-34.461695,-58.8321767,-34.501695,-34.421695,-58.8721767,-58.7921767
289,TUxBQkVMUDkzMzA1Ng,El Portal de Pilar,Pilar,TUxBQ1BJTGFyMTIz,Bs.As. G.B.A. Norte,TUxBUEdSQWU4ZDkz,Argentina,-34.441723,-58.923473,-34.481723,-34.401723000000004,-58.963473,-58.883473
290,TUxBQkVMUDU3ODY1Mg,El Portillo,Pilar,TUxBQ1BJTGFyMTIz,Bs.As. G.B.A. Norte,TUxBUEdSQWU4ZDkz,Argentina,-34.45183,-58.97508,-34.49183,-34.41183,-59.01508,-58.93508
291,TUxBQkVMUjk3MjMwNA,El Recodo,Pilar,TUxBQ1BJTGFyMTIz,Bs.As. G.B.A. Norte,TUxBUEdSQWU4ZDkz,Argentina,-34.445786,-58.928352,-34.485786,-34.405786,-58.968351999999996,-58.888352
292,TUxBQkVMUjE3NTkwMw,El Rincon de la Retama,Pilar,TUxBQ1BJTGFyMTIz,Bs.As. G.B.A. Norte,TUxBUEdSQWU4ZDkz,Argentina,-34.445269,-58.984214,-34.485269,-34.405269000000004,-59.024214,-58.944214
293,TVhYRWwgUm9jw61vVFV4QlExQkpUR0Z5TVRJe,El Rocío,Pilar,TUxBQ1BJTGFyMTIz,Bs.As. G.B.A. Norte,TUxBUEdSQWU4ZDkz,Argentina,-34.444004,-58.7884315,-34.484004,-34.404004,-58.8284315,-58.7484315
294,TUxBQkVMUzkwODkxNw,El Silencio,Pilar,TUxBQ1BJTGFyMTIz,Bs.As. G.B.A. Norte,TUxBUEdSQWU4ZDkz,Argentina,-34.4272,-58.882805,-34.4672,-34.3872,-58.922805,-58.842805
295,TUxBQkVMVDU0MDc1Mg,El Tejar,Pilar,TUxBQ1BJTGFyMTIz,Bs.As. G.B.A. Norte,TUxBUEdSQWU4ZDkz,Argentina,-34.467865,-58.74089,-34.507865,-34.427865000000004,-58.78089,-58.70089
296,TUxBQkVMWjQwMDQ1Mw,El Zorzal,Pilar,TUxBQ1BJTGFyMTIz,Bs.As. G.B.A. Norte,TUxBUEdSQWU4ZDkz,Argentina,-34.449192,-58.92221,-34.489191999999996,-34.409192,-58.96221,-58.88221
297,TUxBQkVTVDYyNjI2MA,Estancia La Casualidad,Pilar,TUxBQ1BJTGFyMTIz,Bs.As. G.B.A. Norte,TUxBUEdSQWU4ZDkz,Argentina,-34.457546,-58.871,-34.497546,-34.417546,-58.911,-58.831
298,TUxBQkVTVDcwNzM0Mg,Estancia San Miguel,Pilar,TUxBQ1BJTGFyMTIz,Bs.As. G.B.A. Norte,TUxBUEdSQWU4ZDkz,Argentina,-34.458508,-58.9926,-34.498508,-34.418508,-59.0326,-58.952600000000004
299,TUxBQkVTVDU1MDc4Nw,Estancias del Pilar,Pilar,TUxBQ1BJTGFyMTIz,Bs.As. G.B.A. Norte,TUxBUEdSQWU4ZDkz,Argentina,-34.48041,-58.992046,-34.52041,-34.44041,-59.032046,-58.952046
300,TUxBQkZBUjMzMjY0MA,Farm Club,Pilar,TUxBQ1BJTGFyMTIz,Bs.As. G.B.A. Norte,TUxBUEdSQWU4ZDkz,Argentina,-34.435444,-58.826176,-34.475443999999996,-34.395444,-58.866175999999996,-58.786176
301,TUxBQkZBUjk2OTkzOQ,Farm House,Pilar,TUxBQ1BJTGFyMTIz,Bs.As. G.B.A. Norte,TUxBUEdSQWU4ZDkz,Argentina,-34.44418,-58.880077,-34.48418,-34.404180000000004,-58.920077,-58.840077
302,TUxBQkZSRTU3Mzk1Mg,Freixas,Pilar,TUxBQ1BJTGFyMTIz,Bs.As. G.B.A. Norte,TUxBUEdSQWU4ZDkz,Argentina,-34.45642,-58.891495,-34.49642,-34.41642,-58.931495,-58.851495
303,TUxBQkbBVDg0MDJa,Fátima,Pilar,TUxBQ1BJTGFyMTIz,Bs.As. G.B.A. Norte,TUxBUEdSQWU4ZDkz,Argentina,-34.4259919,-58.9965377,-34.4659919,-34.3859919,-59.0365377,-58.9565377
304,TUxBQkdBTDc0Mjg1MQ,Galápagos,Pilar,TUxBQ1BJTGFyMTIz,Bs.As. G.B.A. Norte,TUxBUEdSQWU4ZDkz,Argentina,-34.446987,-58.92565,-34.486987,-34.406987,-58.96565,-58.88565
305,TUxBQkdPTDczOTE3NA,Golfer's,Pilar,TUxBQ1BJTGFyMTIz,Bs.As. G.B.A. Norte,TUxBUEdSQWU4ZDkz,Argentina,-34.4949,-58.93274,-34.5349,-34.4549,-58.97274,-58.89274
306,TUxBQkdVSTM2MjUwOQ,Guido,Pilar,TUxBQ1BJTGFyMTIz,Bs.As. G.B.A. Norte,TUxBUEdSQWU4ZDkz,Argentina,-34.456436,-58.89137,-34.496435999999996,-34.416436,-58.93137,-58.85137
307,SGFiaXRhdCBSZXNpZGVuY2lhc1RVeEJRMUJKVEdG,Habitat Residencias,Pilar,TUxBQ1BJTGFyMTIz,Bs.As. G.B.A. Norte,TUxBUEdSQWU4ZDkz,Argentina,-34.4125692,-58.8489507,-34.4525692,-34.3725692,-58.8889507,-58.808950700000004
308,TUxBQkhBUjkzOTMyOQ,Haras Pino Solo,Pilar,TUxBQ1BJTGFyMTIz,Bs.As. G.B.A. Norte,TUxBUEdSQWU4ZDkz,Argentina,-34.50538,-58.8905347,-34.54538,-34.46538,-58.9305347,-58.850534700000004
309,TVhYSGFyYXMgU2FudGEgTWFyw61hVFV4QlExQ,Haras Santa María,Pilar,TUxBQ1BJTGFyMTIz,Bs.As. G.B.A. Norte,TUxBUEdSQWU4ZDkz,Argentina,-34.3399746,-58.8517543,-34.3799746,-34.2999746,-58.8917543,-58.811754300000004
310,TUxBQkhBUjk0NjQxNA,Haras del Pilar,Pilar,TUxBQ1BJTGFyMTIz,Bs.As. G.B.A. Norte,TUxBUEdSQWU4ZDkz,Argentina,-34.523838,-58.87602,-34.563838,-34.483838,-58.916019999999996,-58.83602
311,TUxBQkhBUjc2NTMwMQ,Haras del Sol,Pilar,TUxBQ1BJTGFyMTIz,Bs.As. G.B.A. Norte,TUxBUEdSQWU4ZDkz,Argentina,-34.523838,-58.87602,-34.563838,-34.483838,-58.916019999999996,-58.83602
312,TUxBQkhJRzQ4ODU1Mg,Highland Park,Pilar,TUxBQ1BJTGFyMTIz,Bs.As. G.B.A. Norte,TUxBUEdSQWU4ZDkz,Argentina,-34.42299,-58.79283,-34.46299,-34.38299,-58.83283,-58.75283
313,TVhYSmFyZGluZXMgRGUgU2FyYXZpVFV4QlExQ,Jardines De Saravi,Pilar,TUxBQ1BJTGFyMTIz,Bs.As. G.B.A. Norte,TUxBUEdSQWU4ZDkz,Argentina,-34.4448724,-58.8428096,-34.4848724,-34.4048724,-58.8828096,-58.8028096
314,TVhYS20gNDBUVXhCUTFCSlRHRnlNVEl6,Km 40,Pilar,TUxBQ1BJTGFyMTIz,Bs.As. G.B.A. Norte,TUxBUEdSQWU4ZDkz,Argentina,-34.4443092,-58.7601395,-34.4843092,-34.4043092,-58.8001395,-58.7201395
315,TUxBQkxBQTc4NTM3Mw,La Aguada,Pilar,TUxBQ1BJTGFyMTIz,Bs.As. G.B.A. Norte,TUxBUEdSQWU4ZDkz,Argentina,-34.588985,-58.40908,-34.628985,-34.548985,-58.44908,-58.369080000000004
316,TVhYTGEgQWd1c3RpbmFUVXhCUTFCSlRHRnlNV,La Agustina,Pilar,TUxBQ1BJTGFyMTIz,Bs.As. G.B.A. Norte,TUxBUEdSQWU4ZDkz,Argentina,-34.4646213,-58.8977058,-34.5046213,-34.4246213,-58.937705799999996,-58.8577058
317,TUxBQkxBQTQxMTM4MQ,La Angelica,Pilar,TUxBQ1BJTGFyMTIz,Bs.As. G.B.A. Norte,TUxBUEdSQWU4ZDkz,Argentina,-34.465786,-58.88433,-34.505786,-34.425786,-58.92433,-58.84433
318,TUxBQkxBQTk1OTM4NQ,La Arboleda,Pilar,TUxBQ1BJTGFyMTIz,Bs.As. G.B.A. Norte,TUxBUEdSQWU4ZDkz,Argentina,-34.40324,-58.7427,-34.443239999999996,-34.36324,-58.7827,-58.7027
319,TUxBQkxBQjkxMzYwOA,La Buena Vista,Pilar,TUxBQ1BJTGFyMTIz,Bs.As. G.B.A. Norte,TUxBUEdSQWU4ZDkz,Argentina,-34.45357,-58.8945,-34.49357,-34.41357,-58.9345,-58.8545
320,TUxBQkxBQzc5MDQ3Nw,La Caballeriza,Pilar,TUxBQ1BJTGFyMTIz,Bs.As. G.B.A. Norte,TUxBUEdSQWU4ZDkz,Argentina,-34.455906,-58.90833,-34.495906,-34.415906,-58.94833,-58.86833
321,TUxBQkxBQzk0NjUyMw,La Campiña,Pilar,TUxBQ1BJTGFyMTIz,Bs.As. G.B.A. Norte,TUxBUEdSQWU4ZDkz,Argentina,-34.4573,-58.883743,-34.497299999999996,-34.4173,-58.923743,-58.843743
322,TUxBQkxBQzc3MTQ2OQ,La Candela,Pilar,TUxBQ1BJTGFyMTIz,Bs.As. G.B.A. Norte,TUxBUEdSQWU4ZDkz,Argentina,-34.631584,-58.44137,-34.671583999999996,-34.591584,-58.48137,-58.40137
323,TUxBQkxBQzY1ODc5NA,La Carmela,Pilar,TUxBQ1BJTGFyMTIz,Bs.As. G.B.A. Norte,TUxBUEdSQWU4ZDkz,Argentina,-34.44616,-58.917137,-34.48616,-34.40616,-58.957136999999996,-58.877137
324,TUxBQkxBQzI0MDQ5Ng,La Cascada,Pilar,TUxBQ1BJTGFyMTIz,Bs.As. G.B.A. Norte,TUxBUEdSQWU4ZDkz,Argentina,-34.48024,-58.900764,-34.52024,-34.44024,-58.940764,-58.860764
325,TUxBQkxBQzc1NTczNw,La Casualidad,Pilar,TUxBQ1BJTGFyMTIz,Bs.As. G.B.A. Norte,TUxBUEdSQWU4ZDkz,Argentina,-34.457546,-58.871,-34.497546,-34.417546,-58.911,-58.831
326,TUxBQkxBQzU0OTQxMg,La Cautiva de Pilar,Pilar,TUxBQ1BJTGFyMTIz,Bs.As. G.B.A. Norte,TUxBUEdSQWU4ZDkz,Argentina,-34.45343,-59.008064,-34.49343,-34.41343,-59.048064,-58.968064
327,TUxBQkxBQzc5NDA1Mw,La Cañada de Pilar,Pilar,TUxBQ1BJTGFyMTIz,Bs.As. G.B.A. Norte,TUxBUEdSQWU4ZDkz,Argentina,-34.46194,-58.90083,-34.50194,-34.42194,-58.94083,-58.86083
328,TUxBQkxBQzc5Nzg4MQ,La Clarita,Pilar,TUxBQ1BJTGFyMTIz,Bs.As. G.B.A. Norte,TUxBUEdSQWU4ZDkz,Argentina,-34.466573,-58.883771,-34.506572999999996,-34.426573,-58.923771,-58.843771000000004
329,TUxBQkxBQzIyODg5MQ,La Cuesta,Pilar,TUxBQ1BJTGFyMTIz,Bs.As. G.B.A. Norte,TUxBUEdSQWU4ZDkz,Argentina,-34.58484,-58.43321,-34.62484,-34.54484,-58.47321,-58.39321
330,TUxBQkxBRDg5NTU1Mg,La Delfina,Pilar,TUxBQ1BJTGFyMTIz,Bs.As. G.B.A. Norte,TUxBUEdSQWU4ZDkz,Argentina,-34.455276,-58.867317,-34.495276,-34.415276,-58.907317,-58.827317
331,TUxBQkxBRTU3NTMzMg,La Emilia,Pilar,TUxBQ1BJTGFyMTIz,Bs.As. G.B.A. Norte,TUxBUEdSQWU4ZDkz,Argentina,-34.48778,-58.9187937,-34.52778,-34.44778,-58.9587937,-58.8787937
332,TUxBQkxBRTM0MTIxNQ,La Escondida,Pilar,TUxBQ1BJTGFyMTIz,Bs.As. G.B.A. Norte,TUxBUEdSQWU4ZDkz,Argentina,-34.438354,-59.01222,-34.478353999999996,-34.398354,-59.05222,-58.97222
333,TUxBQkxBRTY1NzY3NQ,La Esperanza ,Pilar,TUxBQ1BJTGFyMTIz,Bs.As. G.B.A. Norte,TUxBUEdSQWU4ZDkz,Argentina,-34.463696,-58.972893,-34.503696,-34.423696,-59.012893,-58.932893
334,TUxBQkxBSDU5OTgzMw,La Herradura,Pilar,TUxBQ1BJTGFyMTIz,Bs.As. G.B.A. Norte,TUxBUEdSQWU4ZDkz,Argentina,-34.443428,-58.831905,-34.483427999999996,-34.403428,-58.871905,-58.791905
335,TUxBQkxBSDc4NzI2Mg,La Honorata,Pilar,TUxBQ1BJTGFyMTIz,Bs.As. G.B.A. Norte,TUxBUEdSQWU4ZDkz,Argentina,-34.433193,-58.804733,-34.473193,-34.393193000000004,-58.844733,-58.764733
336,TVhYTGEgSm9zZWZpbmFUVXhCUTFCSlRHRnlNV,La Josefina,Pilar,TUxBQ1BJTGFyMTIz,Bs.As. G.B.A. Norte,TUxBUEdSQWU4ZDkz,Argentina,-34.4252208,-58.8864583,-34.4652208,-34.3852208,-58.9264583,-58.8464583
337,TUxBQkxBTDYyMTYwMg,La Legua,Pilar,TUxBQ1BJTGFyMTIz,Bs.As. G.B.A. Norte,TUxBUEdSQWU4ZDkz,Argentina,-34.479095,-58.919907,-34.519095,-34.439095,-58.959907,-58.879907
338,TUxBQkxBTDExNjY4NQ,La Lomada,Pilar,TUxBQ1BJTGFyMTIz,Bs.As. G.B.A. Norte,TUxBUEdSQWU4ZDkz,Argentina,-34.43307,-58.8188,-34.47307,-34.39307,-58.8588,-58.778800000000004
339,TUxBQkxBTDc0NDg3NA,La Lomita,Pilar,TUxBQ1BJTGFyMTIz,Bs.As. G.B.A. Norte,TUxBUEdSQWU4ZDkz,Argentina,-34.53977,-58.47238,-34.579769999999996,-34.49977,-58.51238,-58.43238
340,TUxBQkxBTDU0MzFa,La Lonja,Pilar,TUxBQ1BJTGFyMTIz,Bs.As. G.B.A. Norte,TUxBUEdSQWU4ZDkz,Argentina,-34.452082,-58.8376156,-34.492081999999996,-34.412082,-58.8776156,-58.7976156
341,TUxBQkxBTTYxMDM3MQ,La Madrugada,Pilar,TUxBQ1BJTGFyMTIz,Bs.As. G.B.A. Norte,TUxBUEdSQWU4ZDkz,Argentina,-34.384808,-59.015907,-34.424808,-34.344808,-59.055907,-58.975907
342,TVhYTGEgTWFnZGFsZW5hVFV4QlExQkpUR0Z5T,La Magdalena,Pilar,TUxBQ1BJTGFyMTIz,Bs.As. G.B.A. Norte,TUxBUEdSQWU4ZDkz,Argentina,-34.4646213,-58.8977058,-34.5046213,-34.4246213,-58.937705799999996,-58.8577058
343,TUxBQkxBTTg4NjcwOA,La Martinica,Pilar,TUxBQ1BJTGFyMTIz,Bs.As. G.B.A. Norte,TUxBUEdSQWU4ZDkz,Argentina,-34.44395,-58.926426,-34.48395,-34.40395,-58.966426,-58.886426
344,TUxBQkxBTTQ2MTI1MQ,La Masía,Pilar,TUxBQ1BJTGFyMTIz,Bs.As. G.B.A. Norte,TUxBUEdSQWU4ZDkz,Argentina,-34.43629,-58.857487,-34.47629,-34.39629,-58.897487,-58.817487
345,TUxBQkxBTTIyMTk4NQ,La Montura,Pilar,TUxBQ1BJTGFyMTIz,Bs.As. G.B.A. Norte,TUxBUEdSQWU4ZDkz,Argentina,-34.41971,-58.766212,-34.45971,-34.37971,-58.806212,-58.726212000000004
346,TUxBQkxBTzIzNjMzOA,La Otilia,Pilar,TUxBQ1BJTGFyMTIz,Bs.As. G.B.A. Norte,TUxBUEdSQWU4ZDkz,Argentina,-34.44724,-58.919655,-34.48724,-34.40724,-58.959655,-58.879655
347,TUxBQkxBUDE4MDA4OQ,La Paz y El Rec. (Est. de Pilar),Pilar,TUxBQ1BJTGFyMTIz,Bs.As. G.B.A. Norte,TUxBUEdSQWU4ZDkz,Argentina,-34.7011519,-58.4379763,-34.7411519,-34.6611519,-58.4779763,-58.3979763
348,TUxBQkxBUDE5NzY0Nw,La Peregrina,Pilar,TUxBQ1BJTGFyMTIz,Bs.As. G.B.A. Norte,TUxBUEdSQWU4ZDkz,Argentina,-34.46947,-58.821827,-34.50947,-34.42947,-58.861827,-58.781827
349,TUxBQkxBUDY4MzI5MQ,La Pilarica,Pilar,TUxBQ1BJTGFyMTIz,Bs.As. G.B.A. Norte,TUxBUEdSQWU4ZDkz,Argentina,-34.634426,-58.418755,-34.674426,-34.594426,-58.458755,-58.378755
350,TUxBQkxBUDM1MzI4Mg,La Pionera (Est. de Pilar),Pilar,TUxBQ1BJTGFyMTIz,Bs.As. G.B.A. Norte,TUxBUEdSQWU4ZDkz,Argentina,-34.7011519,-58.4379763,-34.7411519,-34.6611519,-58.4779763,-58.3979763
351,TUxBQkxBUDcyNDY4Mw,La Pradera,Pilar,TUxBQ1BJTGFyMTIz,Bs.As. G.B.A. Norte,TUxBUEdSQWU4ZDkz,Argentina,-34.415916,-58.871506,-34.455916,-34.375916000000004,-58.911505999999996,-58.831506
352,TUxBQkxBUDcwMzY5NA,La Pradera II,Pilar,TUxBQ1BJTGFyMTIz,Bs.As. G.B.A. Norte,TUxBUEdSQWU4ZDkz,Argentina,-34.415916,-58.871506,-34.455916,-34.375916000000004,-58.911505999999996,-58.831506
353,TUxBQkxBUjQyMTkxMw,La Ranita,Pilar,TUxBQ1BJTGFyMTIz,Bs.As. G.B.A. Norte,TUxBUEdSQWU4ZDkz,Argentina,-34.477222,-59.037933,-34.517222,-34.437222,-59.077933,-58.997933
354,TUxBQkxBUjIyMTUwNQ,La Reserva,Pilar,TUxBQ1BJTGFyMTIz,Bs.As. G.B.A. Norte,TUxBUEdSQWU4ZDkz,Argentina,-34.413,-58.916286,-34.452999999999996,-34.373,-58.956286,-58.876286
355,TUxBQkxBUjc4MjI3Ng,La Retama,Pilar,TUxBQ1BJTGFyMTIz,Bs.As. G.B.A. Norte,TUxBUEdSQWU4ZDkz,Argentina,-34.44388,-58.92639,-34.48388,-34.40388,-58.96639,-58.88639
356,TUxBQkxBUjcwNjQ3NQ,La Rinconada,Pilar,TUxBQ1BJTGFyMTIz,Bs.As. G.B.A. Norte,TUxBUEdSQWU4ZDkz,Argentina,-34.43798,-58.848083,-34.47798,-34.397980000000004,-58.888083,-58.808083
357,TUxBQkxBUjg2MzkzMA,La Rivera,Pilar,TUxBQ1BJTGFyMTIz,Bs.As. G.B.A. Norte,TUxBUEdSQWU4ZDkz,Argentina,-34.421967,-58.868237,-34.461967,-34.381967,-58.908237,-58.828237
358,TUxBQkxBVDQyNjg0OA,La Tranquera,Pilar,TUxBQ1BJTGFyMTIz,Bs.As. G.B.A. Norte,TUxBUEdSQWU4ZDkz,Argentina,-34.46475,-58.91441,-34.50475,-34.42475,-58.954409999999996,-58.87441
359,TUxBQkxBRzYyODY4Mw,Lago de Manzanares,Pilar,TUxBQ1BJTGFyMTIz,Bs.As. G.B.A. Norte,TUxBUEdSQWU4ZDkz,Argentina,-34.46414,-58.999477,-34.50414,-34.42414,-59.039477,-58.959477
360,TVhYTGFnb29uIFBpbGFyVFV4QlExQkpUR0Z5T,Lagoon Pilar,Pilar,TUxBQ1BJTGFyMTIz,Bs.As. G.B.A. Norte,TUxBUEdSQWU4ZDkz,Argentina,-34.41428,-58.849994,-34.45428,-34.37428,-58.889994,-58.809994
361,TUxBQkxBUjE4ODQzNw,Larena,Pilar,TUxBQ1BJTGFyMTIz,Bs.As. G.B.A. Norte,TUxBUEdSQWU4ZDkz,Argentina,-34.652493,-58.511505,-34.692493,-34.612493,-58.551505,-58.471505
362,TUxBQkxBUzU0NjEzNg,Las Acacias,Pilar,TUxBQ1BJTGFyMTIz,Bs.As. G.B.A. Norte,TUxBUEdSQWU4ZDkz,Argentina,-34.507248,-58.946377,-34.547247999999996,-34.467248,-58.986377,-58.906377
363,TUxBQkxBUzc5NjAxMg,Las Araucarias,Pilar,TUxBQ1BJTGFyMTIz,Bs.As. G.B.A. Norte,TUxBUEdSQWU4ZDkz,Argentina,-34.45488,-58.864635,-34.49488,-34.414880000000004,-58.904635,-58.824635
364,TUxBQkxBUzY4ODk4Ng,Las Bresias,Pilar,TUxBQ1BJTGFyMTIz,Bs.As. G.B.A. Norte,TUxBUEdSQWU4ZDkz,Argentina,-34.37533,-58.870647,-34.41533,-34.33533,-58.910647,-58.830647
365,TUxBQkxBUzkwOTc5OA,Las Calas,Pilar,TUxBQ1BJTGFyMTIz,Bs.As. G.B.A. Norte,TUxBUEdSQWU4ZDkz,Argentina,-34.4213843,-58.8832181,-34.4613843,-34.3813843,-58.9232181,-58.8432181
366,TUxBQkxBUzMwODMwNQ,Las Campanillas,Pilar,TUxBQ1BJTGFyMTIz,Bs.As. G.B.A. Norte,TUxBUEdSQWU4ZDkz,Argentina,-34.42691,-58.791725,-34.46691,-34.38691,-58.831725,-58.751725
367,TUxBQkxBUzMzNzg3OQ,Las Condes,Pilar,TUxBQ1BJTGFyMTIz,Bs.As. G.B.A. Norte,TUxBUEdSQWU4ZDkz,Argentina,-34.452915,-58.884823,-34.492914999999996,-34.412915,-58.924822999999996,-58.844823
368,TUxBQkxBUzE1NDE4Mg,Las Liebres,Pilar,TUxBQ1BJTGFyMTIz,Bs.As. G.B.A. Norte,TUxBUEdSQWU4ZDkz,Argentina,-34.441647,-58.74874,-34.481647,-34.401647000000004,-58.78874,-58.70874
369,TUxBQkxBUzMxODM3Ng,Las Margaritas,Pilar,TUxBQ1BJTGFyMTIz,Bs.As. G.B.A. Norte,TUxBUEdSQWU4ZDkz,Argentina,-34.446987,-58.92565,-34.486987,-34.406987,-58.96565,-58.88565
370,TUxBQkxBUzc2MDczNQ,Las Marías Club de Polo,Pilar,TUxBQ1BJTGFyMTIz,Bs.As. G.B.A. Norte,TUxBUEdSQWU4ZDkz,Argentina,-34.424603,-59.037537,-34.464603,-34.384603,-59.077537,-58.997537
371,TUxBQkxBUzM3MzE4Mw,Las Mercedes,Pilar,TUxBQ1BJTGFyMTIz,Bs.As. G.B.A. Norte,TUxBUEdSQWU4ZDkz,Argentina,-34.46179,-58.92573,-34.50179,-34.42179,-58.96573,-58.88573
372,TUxBQkxBUzEyMDM3MQ,Las Orquídeas,Pilar,TUxBQ1BJTGFyMTIz,Bs.As. G.B.A. Norte,TUxBUEdSQWU4ZDkz,Argentina,-34.430458,-58.781155,-34.470458,-34.390458,-58.821155,-58.741155
373,TUxBQkxBUzMyOTAwMg,Las Recovas,Pilar,TUxBQ1BJTGFyMTIz,Bs.As. G.B.A. Norte,TUxBUEdSQWU4ZDkz,Argentina,-34.450336,-58.91432,-34.490336,-34.410336,-58.954319999999996,-58.87432
374,TUxBQkxBUzMxOTE2MQ,Las Secoyas,Pilar,TUxBQ1BJTGFyMTIz,Bs.As. G.B.A. Norte,TUxBUEdSQWU4ZDkz,Argentina,-34.44415,-58.832363,-34.48415,-34.40415,-58.872363,-58.792363
375,TVhYTGlxdWlkYW1iYXJUVXhCUTFCSlRHRnlNV,Liquidambar,Pilar,TUxBQ1BJTGFyMTIz,Bs.As. G.B.A. Norte,TUxBUEdSQWU4ZDkz,Argentina,-34.4246066,-58.8383354,-34.464606599999996,-34.3846066,-58.8783354,-58.7983354
376,TUxBQkxJVDM5MzkyMw,Little Ranch,Pilar,TUxBQ1BJTGFyMTIz,Bs.As. G.B.A. Norte,TUxBUEdSQWU4ZDkz,Argentina,-34.440327,-58.774967,-34.480327,-34.400327000000004,-58.814966999999996,-58.734967
377,TUxBQkxPTTIzMjYzMg,Lomas de Fátima,Pilar,TUxBQ1BJTGFyMTIz,Bs.As. G.B.A. Norte,TUxBUEdSQWU4ZDkz,Argentina,-34.562553,-58.458405,-34.602553,-34.522553,-58.498405,-58.418405
378,TUxBQkxPTTUzMjA5Nw,Lomas de Pilar,Pilar,TUxBQ1BJTGFyMTIz,Bs.As. G.B.A. Norte,TUxBUEdSQWU4ZDkz,Argentina,-34.443844,-58.97483,-34.483844,-34.403844,-59.014829999999996,-58.93483
379,TUxBQkxPUzE5MjE0Nw,Los Alamos,Pilar,TUxBQ1BJTGFyMTIz,Bs.As. G.B.A. Norte,TUxBUEdSQWU4ZDkz,Argentina,-34.45419,-58.95179,-34.494189999999996,-34.41419,-58.99179,-58.91179
380,TUxBQkxPUzkxOTcyOA,Los Alcanfores,Pilar,TUxBQ1BJTGFyMTIz,Bs.As. G.B.A. Norte,TUxBUEdSQWU4ZDkz,Argentina,-34.701893,-58.439148,-34.741893,-34.661893,-58.479148,-58.399148000000004
381,TUxBQkxPUzExNjgzOA,Los Boulevares,Pilar,TUxBQ1BJTGFyMTIz,Bs.As. G.B.A. Norte,TUxBUEdSQWU4ZDkz,Argentina,-34.442703,-58.82467,-34.482703,-34.402703,-58.86467,-58.78467
382,TUxBQkxPUzE3ODBa,Los Cachorros,Pilar,TUxBQ1BJTGFyMTIz,Bs.As. G.B.A. Norte,TUxBUEdSQWU4ZDkz,Argentina,-34.45866,-58.908615,-34.49866,-34.41866,-58.948615,-58.868615
383,TUxBQkxPUzEwNTk2Mg,Los Cerrillos,Pilar,TUxBQ1BJTGFyMTIz,Bs.As. G.B.A. Norte,TUxBUEdSQWU4ZDkz,Argentina,-34.451473,-59.009026,-34.491473,-34.411473,-59.049026,-58.969026
384,TUxBQkxPUzU1NzU1Nw,Los Cuatro Ombúes,Pilar,TUxBQ1BJTGFyMTIz,Bs.As. G.B.A. Norte,TUxBUEdSQWU4ZDkz,Argentina,-34.469707,-58.775723,-34.509707,-34.429707,-58.815723,-58.735723
385,TUxBQkxPUzQ4OTI5NA,Los Eucaliptus,Pilar,TUxBQ1BJTGFyMTIz,Bs.As. G.B.A. Norte,TUxBUEdSQWU4ZDkz,Argentina,-34.456852,-58.843857,-34.496852,-34.416852,-58.883857,-58.803857
386,TUxBQkxPUzM0NDc1Ng,Los Fresnos,Pilar,TUxBQ1BJTGFyMTIz,Bs.As. G.B.A. Norte,TUxBUEdSQWU4ZDkz,Argentina,-34.442703,-58.82467,-34.482703,-34.402703,-58.86467,-58.78467
387,TUxBQkxPUzgwNTg3NQ,Los Girasoles,Pilar,TUxBQ1BJTGFyMTIz,Bs.As. G.B.A. Norte,TUxBUEdSQWU4ZDkz,Argentina,-34.48312,-59.216473,-34.52312,-34.44312,-59.256473,-59.176473
388,TUxBQkxPUzYzMjQxNw,Los Jazmines,Pilar,TUxBQ1BJTGFyMTIz,Bs.As. G.B.A. Norte,TUxBUEdSQWU4ZDkz,Argentina,-34.45722,-58.883823,-34.49722,-34.41722,-58.923823,-58.843823
389,TUxBQkxPUzE2MTE4MQ,Los Lagartos,Pilar,TUxBQ1BJTGFyMTIz,Bs.As. G.B.A. Norte,TUxBUEdSQWU4ZDkz,Argentina,-34.4403,-58.759308,-34.4803,-34.4003,-58.799307999999996,-58.719308
390,TUxBQkxPUzg2MTA0Ng,Los Laureles,Pilar,TUxBQ1BJTGFyMTIz,Bs.As. G.B.A. Norte,TUxBUEdSQWU4ZDkz,Argentina,-34.44981,-58.855244,-34.48981,-34.40981,-58.895244,-58.815244
391,TUxBQkxPUzI2NzM5Mg,Los Leños,Pilar,TUxBQ1BJTGFyMTIz,Bs.As. G.B.A. Norte,TUxBUEdSQWU4ZDkz,Argentina,-34.45382,-58.88851,-34.49382,-34.41382,-58.928509999999996,-58.84851
392,TUxBQkxPUzEwNTUxOA,Los Palenques,Pilar,TUxBQ1BJTGFyMTIz,Bs.As. G.B.A. Norte,TUxBUEdSQWU4ZDkz,Argentina,-34.459156,-58.852062,-34.499156,-34.419156,-58.892061999999996,-58.812062
393,TUxBQkxPUzE3NTA4MA,Los Pilares,Pilar,TUxBQ1BJTGFyMTIz,Bs.As. G.B.A. Norte,TUxBUEdSQWU4ZDkz,Argentina,-34.441273,-58.86537,-34.481273,-34.401273,-58.90537,-58.82537
394,TUxBQkxPUzk0ODMyMQ,Los Potrillos,Pilar,TUxBQ1BJTGFyMTIz,Bs.As. G.B.A. Norte,TUxBUEdSQWU4ZDkz,Argentina,-34.43543,-58.994686,-34.475429999999996,-34.39543,-59.034686,-58.954686
395,TUxBQkxPUzc2OTA5NA,Los Quinchos,Pilar,TUxBQ1BJTGFyMTIz,Bs.As. G.B.A. Norte,TUxBUEdSQWU4ZDkz,Argentina,-34.38462,-59.00388,-34.42462,-34.34462,-59.04388,-58.96388
396,TUxBQkxPUzg2MDM0Ng,Los Sauces,Pilar,TUxBQ1BJTGFyMTIz,Bs.As. G.B.A. Norte,TUxBUEdSQWU4ZDkz,Argentina,-34.454845,-58.95129,-34.494845,-34.414845,-58.99129,-58.91129
397,TUxBQkxPUzYyMDA5OA,Los Senderos,Pilar,TUxBQ1BJTGFyMTIz,Bs.As. G.B.A. Norte,TUxBUEdSQWU4ZDkz,Argentina,-34.602512,-58.645008,-34.642511999999996,-34.562512,-58.685007999999996,-58.605008
398,TUxBQkxPUzY3NzE0Mg,Los Tacos,Pilar,TUxBQ1BJTGFyMTIz,Bs.As. G.B.A. Norte,TUxBUEdSQWU4ZDkz,Argentina,-34.44981,-58.855244,-34.48981,-34.40981,-58.895244,-58.815244
399,TUxBQkxPUzM5ODY0Ng,Los Tres Coniles,Pilar,TUxBQ1BJTGFyMTIz,Bs.As. G.B.A. Norte,TUxBUEdSQWU4ZDkz,Argentina,-34.469944,-58.847942,-34.509944,-34.429944,-58.887942,-58.807942000000004
400,TUxBQkxPUzY0MzM0NQ,Los Troncos,Pilar,TUxBQ1BJTGFyMTIz,Bs.As. G.B.A. Norte,TUxBUEdSQWU4ZDkz,Argentina,-34.42661,-58.621548,-34.466609999999996,-34.38661,-58.661547999999996,-58.581548
401,TUxBQk1BTjU5NDZa,Manzanares,Pilar,TUxBQ1BJTGFyMTIz,Bs.As. G.B.A. Norte,TUxBUEdSQWU4ZDkz,Argentina,-34.448673,-58.995583,-34.488673,-34.408673,-59.035583,-58.955583000000004
402,TUxBQk1BTjUzODE3Mw,Manzanares Chico,Pilar,TUxBQ1BJTGFyMTIz,Bs.As. G.B.A. Norte,TUxBUEdSQWU4ZDkz,Argentina,-34.44476,-58.981884,-34.48476,-34.40476,-59.021884,-58.941884
403,TUxBQk1BTjM5NjBa,Manzone,Pilar,TUxBQ1BJTGFyMTIz,Bs.As. G.B.A. Norte,TUxBUEdSQWU4ZDkz,Argentina,-34.48333,-58.86666,-34.52333,-34.44333,-58.90666,-58.826660000000004
404,TUxBQk1BUDg2ODQ5OA,Mapuche,Pilar,TUxBQ1BJTGFyMTIz,Bs.As. G.B.A. Norte,TUxBUEdSQWU4ZDkz,Argentina,-34.442898,-58.853165,-34.482898,-34.402898,-58.893164999999996,-58.813165
405,TUxBQk1BUTk2OTU0Mg,Maquinaval,Pilar,TUxBQ1BJTGFyMTIz,Bs.As. G.B.A. Norte,TUxBUEdSQWU4ZDkz,Argentina,-34.467464,-58.823402,-34.507464,-34.427464,-58.863402,-58.783402
406,TUxBQk1BUTM0NTVa,Maquinista F. Savio Oeste,Pilar,TUxBQ1BJTGFyMTIz,Bs.As. G.B.A. Norte,TUxBUEdSQWU4ZDkz,Argentina,-34.439278,-58.794876,-34.479278,-34.399278,-58.834876,-58.754876
407,TUxBQk1BUjE4NjI5MQ,Marinas del Pilar,Pilar,TUxBQ1BJTGFyMTIz,Bs.As. G.B.A. Norte,TUxBUEdSQWU4ZDkz,Argentina,-34.497665,-58.9252,-34.537665,-34.457665,-58.965199999999996,-58.8852
408,TUxBQk1BUjc0NTA1OQ,Martindale,Pilar,TUxBQ1BJTGFyMTIz,Bs.As. G.B.A. Norte,TUxBUEdSQWU4ZDkz,Argentina,-34.467205,-58.858963,-34.507205,-34.427205,-58.898963,-58.818963000000004
409,TUxBQk1BVDYyMjM4NQ,Matices,Pilar,TUxBQ1BJTGFyMTIz,Bs.As. G.B.A. Norte,TUxBUEdSQWU4ZDkz,Argentina,-34.454613,-58.9038,-34.494613,-34.414613,-58.943799999999996,-58.8638
410,TUxBQk1BWTYzNDQ3Mw,Mayling,Pilar,TUxBQ1BJTGFyMTIz,Bs.As. G.B.A. Norte,TUxBUEdSQWU4ZDkz,Argentina,-34.42919,-58.88024,-34.46919,-34.38919,-58.92024,-58.84024
411,TUxBQk1FRDczNjkwNQ,Medal Country Club,Pilar,TUxBQ1BJTGFyMTIz,Bs.As. G.B.A. Norte,TUxBUEdSQWU4ZDkz,Argentina,-34.505783,-58.9526,-34.545783,-34.465783,-58.992599999999996,-58.9126
412,TUxBQk1PTjg4MjY4MQ,Montecarlo,Pilar,TUxBQ1BJTGFyMTIz,Bs.As. G.B.A. Norte,TUxBUEdSQWU4ZDkz,Argentina,-34.4979,-58.9404,-34.5379,-34.4579,-58.980399999999996,-58.9004
413,TUxBQk5BTjg0NjQ5Mw,Nano,Pilar,TUxBQ1BJTGFyMTIz,Bs.As. G.B.A. Norte,TUxBUEdSQWU4ZDkz,Argentina,-34.54424,-58.711346,-34.58424,-34.50424,-58.751346,-58.671346
414,TUxBQk5PUjMyNzUwNw,North Ville,Pilar,TUxBQ1BJTGFyMTIz,Bs.As. G.B.A. Norte,TUxBUEdSQWU4ZDkz,Argentina,-34.44573,-58.8872,-34.48573,-34.40573,-58.9272,-58.8472
415,TUxBQlBBTDg5Njc0Mw,Palmares de Pilar,Pilar,TUxBQ1BJTGFyMTIz,Bs.As. G.B.A. Norte,TUxBUEdSQWU4ZDkz,Argentina,-34.488804,-58.933083,-34.528804,-34.448804,-58.973083,-58.893083000000004
416,TUxBQlBBTDk1NDAxNg,Palmas del Sol,Pilar,TUxBQ1BJTGFyMTIz,Bs.As. G.B.A. Norte,TUxBUEdSQWU4ZDkz,Argentina,-34.42829,-58.834866,-34.468289999999996,-34.38829,-58.874866,-58.794866
417,TVhYUGFsbWFzIGRlbCBTb2xUVXhCUTFCSlRHR,Palmas del Sol,Pilar,TUxBQ1BJTGFyMTIz,Bs.As. G.B.A. Norte,TUxBUEdSQWU4ZDkz,Argentina,-34.4646213,-58.8977058,-34.5046213,-34.4246213,-58.937705799999996,-58.8577058
418,TUxBQlBBUDI1NTgxMA,Papiros,Pilar,TUxBQ1BJTGFyMTIz,Bs.As. G.B.A. Norte,TUxBUEdSQWU4ZDkz,Argentina,-34.453946,-58.9420657,-34.493946,-34.413946,-58.9820657,-58.9020657
419,TUxBQlBBUjcyMzM4OQ,Parque Peró,Pilar,TUxBQ1BJTGFyMTIz,Bs.As. G.B.A. Norte,TUxBUEdSQWU4ZDkz,Argentina,-34.469814,-58.80358,-34.509814,-34.429814,-58.843579999999996,-58.76358
420,TUxBQlBFQjg1MjE5Nw,Pebbel Beach,Pilar,TUxBQ1BJTGFyMTIz,Bs.As. G.B.A. Norte,TUxBUEdSQWU4ZDkz,Argentina,-34.439891,-58.936552,-34.479891,-34.399891000000004,-58.976552,-58.896552
421,TUxBQlBFTDc4MDg3Nw,Pellegrini Village,Pilar,TUxBQ1BJTGFyMTIz,Bs.As. G.B.A. Norte,TUxBUEdSQWU4ZDkz,Argentina,-34.42817,-58.88411,-34.46817,-34.38817,-58.92411,-58.84411
422,TUxBQlBFVDk2MzE4NQ,Petrel Village,Pilar,TUxBQ1BJTGFyMTIz,Bs.As. G.B.A. Norte,TUxBUEdSQWU4ZDkz,Argentina,-34.449413,-58.927162,-34.489413,-34.409413,-58.967162,-58.887162000000004
423,TUxBQlBFVjE3OTIxMQ,Pevero,Pilar,TUxBQ1BJTGFyMTIz,Bs.As. G.B.A. Norte,TUxBUEdSQWU4ZDkz,Argentina,-34.433056,-58.983056,-34.473056,-34.393056,-59.023056,-58.943056
424,TUxBQlBJTDIzMjY0NQ,Pilar,Pilar,TUxBQ1BJTGFyMTIz,Bs.As. G.B.A. Norte,TUxBUEdSQWU4ZDkz,Argentina,-34.4559059,-58.908329,-34.4959059,-34.4159059,-58.948329,-58.868329
425,TVhYUGlsYXIgR2FyZGVuVFV4QlExQkpUR0Z5T,Pilar Garden,Pilar,TUxBQ1BJTGFyMTIz,Bs.As. G.B.A. Norte,TUxBUEdSQWU4ZDkz,Argentina,-34.4393449,-58.7992308,-34.4793449,-34.3993449,-58.839230799999996,-58.7592308
426,TUxBQlBJTDk1OTUwMw,Pilar Golf ,Pilar,TUxBQ1BJTGFyMTIz,Bs.As. G.B.A. Norte,TUxBUEdSQWU4ZDkz,Argentina,-34.43823,-58.97685,-34.478229999999996,-34.39823,-59.01685,-58.93685
427,TUxBQlBJTDY4MjcyOA,Pilar Green Park,Pilar,TUxBQ1BJTGFyMTIz,Bs.As. G.B.A. Norte,TUxBUEdSQWU4ZDkz,Argentina,-34.427147,-58.785526,-34.467147,-34.387147,-58.825525999999996,-58.745526
428,TUxBQlBJTDEyOTg0Mg,Pilar House,Pilar,TUxBQ1BJTGFyMTIz,Bs.As. G.B.A. Norte,TUxBUEdSQWU4ZDkz,Argentina,-34.441505,-58.924126,-34.481505,-34.401505,-58.964126,-58.884126
429,TUxBQlBJTDg3ODIwOA,Pilar Joven,Pilar,TUxBQ1BJTGFyMTIz,Bs.As. G.B.A. Norte,TUxBUEdSQWU4ZDkz,Argentina,-34.45303,-58.88175,-34.49303,-34.41303,-58.921749999999996,-58.84175
430,TUxBQlBJTDM4NjA3MA,Pilar Nuevo,Pilar,TUxBQ1BJTGFyMTIz,Bs.As. G.B.A. Norte,TUxBUEdSQWU4ZDkz,Argentina,-34.445267,-58.87258,-34.485267,-34.405267,-58.91258,-58.83258
431,TUxBQlBJTDgyMjk2Ng,Pilar Plaza,Pilar,TUxBQ1BJTGFyMTIz,Bs.As. G.B.A. Norte,TUxBUEdSQWU4ZDkz,Argentina,-34.458733,-58.913933,-34.498733,-34.418733,-58.953933,-58.873933
432,TUxBQlBJTDY3NzIyNw,Pilar Privado,Pilar,TUxBQ1BJTGFyMTIz,Bs.As. G.B.A. Norte,TUxBUEdSQWU4ZDkz,Argentina,-34.39214,-58.86657,-34.43214,-34.35214,-58.90657,-58.826570000000004
433,TUxBQlBJTDcyNTk4NQ,Pilar Village,Pilar,TUxBQ1BJTGFyMTIz,Bs.As. G.B.A. Norte,TUxBUEdSQWU4ZDkz,Argentina,-34.441895,-58.872326,-34.481895,-34.401895,-58.912326,-58.832326
434,TUxBQlBJTDEyMTI0Mw,Pilar del Este,Pilar,TUxBQ1BJTGFyMTIz,Bs.As. G.B.A. Norte,TUxBUEdSQWU4ZDkz,Argentina,-34.39214,-58.86657,-34.43214,-34.35214,-58.90657,-58.826570000000004
435,TUxBQlBJTDcwMjI0OQ,Pilar del Lago,Pilar,TUxBQ1BJTGFyMTIz,Bs.As. G.B.A. Norte,TUxBUEdSQWU4ZDkz,Argentina,-34.46263,-58.861923,-34.502629999999996,-34.42263,-58.901923,-58.821923
436,TUxBQlBJTDYzNDU3Nw,Pilara,Pilar,TUxBQ1BJTGFyMTIz,Bs.As. G.B.A. Norte,TUxBUEdSQWU4ZDkz,Argentina,-34.461735,-58.952454,-34.501735,-34.421735,-58.992454,-58.912454000000004
437,TUxBQlBJTjIxMDc2MA,Pinares,Pilar,TUxBQ1BJTGFyMTIz,Bs.As. G.B.A. Norte,TUxBUEdSQWU4ZDkz,Argentina,-34.41782,-58.82798,-34.45782,-34.37782,-58.867979999999996,-58.78798
438,TVhYUG90cmVyb3MgZGUgTGEgQ3J1elRVeEJRM,Potreros de La Cruz,Pilar,TUxBQ1BJTGFyMTIz,Bs.As. G.B.A. Norte,TUxBUEdSQWU4ZDkz,Argentina,-24.8901433,-65.2748263,-24.930143299999997,-24.8501433,-65.31482630000001,-65.2348263
439,TUxBQlBSRTM2ODg2Ng,Premium Pilar,Pilar,TUxBQ1BJTGFyMTIz,Bs.As. G.B.A. Norte,TUxBUEdSQWU4ZDkz,Argentina,-34.453068,-58.726044,-34.493068,-34.413068,-58.766044,-58.686044
440,TUxBQlBSRTY5Nzla,Presidente Derqui,Pilar,TUxBQ1BJTGFyMTIz,Bs.As. G.B.A. Norte,TUxBUEdSQWU4ZDkz,Argentina,-34.4904459,-58.8402383,-34.5304459,-34.4504459,-58.8802383,-58.800238300000004
441,TUxBQlBSSTE2MDMzMg,Princess,Pilar,TUxBQ1BJTGFyMTIz,Bs.As. G.B.A. Norte,TUxBUEdSQWU4ZDkz,Argentina,-34.43347,-58.77951,-34.47347,-34.39347,-58.81951,-58.73951
442,TVhYUHVlYmxvIENhYW1hw7FvVFV4QlExQkpUR,Pueblo Caamaño,Pilar,TUxBQ1BJTGFyMTIz,Bs.As. G.B.A. Norte,TUxBUEdSQWU4ZDkz,Argentina,-34.4301322,-58.8336371,-34.4701322,-34.390132200000004,-58.873637099999996,-58.7936371
443,TUxBQlBVRTQ2MDAzNw,Pueyrredón,Pilar,TUxBQ1BJTGFyMTIz,Bs.As. G.B.A. Norte,TUxBUEdSQWU4ZDkz,Argentina,-34.44211,-58.791172,-34.48211,-34.40211,-58.831172,-58.751172000000004
444,TUxBQlJFVDY2MDU3Mg,Retiro del Pilar,Pilar,TUxBQ1BJTGFyMTIz,Bs.As. G.B.A. Norte,TUxBUEdSQWU4ZDkz,Argentina,-34.425106,-58.877716,-34.465106,-34.385106,-58.917716,-58.837716
445,TUxBQlJJTjQ1ODEwOQ,Rincón de Morra II,Pilar,TUxBQ1BJTGFyMTIz,Bs.As. G.B.A. Norte,TUxBUEdSQWU4ZDkz,Argentina,-34.455708,-58.91185,-34.495708,-34.415708,-58.95185,-58.87185
446,TUxBQlJJTjI5NzM5OA,Rincón de Morra III,Pilar,TUxBQ1BJTGFyMTIz,Bs.As. G.B.A. Norte,TUxBUEdSQWU4ZDkz,Argentina,-34.455708,-58.91185,-34.495708,-34.415708,-58.95185,-58.87185
447,TUxBQlJJTjM2OTI1Mw,Rincón de Morra IV,Pilar,TUxBQ1BJTGFyMTIz,Bs.As. G.B.A. Norte,TUxBUEdSQWU4ZDkz,Argentina,-34.455708,-58.91185,-34.495708,-34.415708,-58.95185,-58.87185
448,TUxBQlJJTjQ3MzQ2OQ,Rincón de Morra V,Pilar,TUxBQ1BJTGFyMTIz,Bs.As. G.B.A. Norte,TUxBUEdSQWU4ZDkz,Argentina,-34.455708,-58.91185,-34.495708,-34.415708,-58.95185,-58.87185
449,TUxBQlJPQjg4NDha,Roberto de Vicenzo,Pilar,TUxBQ1BJTGFyMTIz,Bs.As. G.B.A. Norte,TUxBUEdSQWU4ZDkz,Argentina,-34.45934,-58.91527,-34.49934,-34.41934,-58.95527,-58.87527
450,TUxBQlJPQjc5MzgwNw,Roble Joven,Pilar,TUxBQ1BJTGFyMTIz,Bs.As. G.B.A. Norte,TUxBUEdSQWU4ZDkz,Argentina,-34.426865,-58.760574,-34.466865,-34.386865,-58.800574,-58.720574
451,TUxBQlJPQjQyOTQ5Mg,Robles del Monarca,Pilar,TUxBQ1BJTGFyMTIz,Bs.As. G.B.A. Norte,TUxBUEdSQWU4ZDkz,Argentina,-34.45462,-58.84423,-34.49462,-34.41462,-58.88423,-58.804230000000004
452,TUxBQlJPQzM1OTIzNA,Rocíos del Pilar,Pilar,TUxBQ1BJTGFyMTIz,Bs.As. G.B.A. Norte,TUxBUEdSQWU4ZDkz,Argentina,-34.455845,-58.964348,-34.495844999999996,-34.415845,-59.004348,-58.924348
453,TUxBQlMuSDUwNTA5Ng,S.H.A,Pilar,TUxBQ1BJTGFyMTIz,Bs.As. G.B.A. Norte,TUxBUEdSQWU4ZDkz,Argentina,-34.58484,-58.43321,-34.62484,-34.54484,-58.47321,-58.39321
454,TUxBQlNBSTE3ODUyNw,Saint Matthew´s,Pilar,TUxBQ1BJTGFyMTIz,Bs.As. G.B.A. Norte,TUxBUEdSQWU4ZDkz,Argentina,-34.56856,-58.454556,-34.60856,-34.52856,-58.494555999999996,-58.414556
455,TUxBQlNBTjM4NzExMQ,San Francisco,Pilar,TUxBQ1BJTGFyMTIz,Bs.As. G.B.A. Norte,TUxBUEdSQWU4ZDkz,Argentina,-34.42286,-58.89139,-34.46286,-34.38286,-58.93139,-58.85139
456,TUxBQlNBTjg2MTQwMQ,San Gerónimo,Pilar,TUxBQ1BJTGFyMTIz,Bs.As. G.B.A. Norte,TUxBUEdSQWU4ZDkz,Argentina,-34.45577,-58.8002,-34.49577,-34.41577,-58.840199999999996,-58.7602
457,TUxBQlNBTjg0MTk4Nw,San Javier - Los Cerrillos,Pilar,TUxBQ1BJTGFyMTIz,Bs.As. G.B.A. Norte,TUxBUEdSQWU4ZDkz,Argentina,-34.452158,-59.0095883,-34.492157999999996,-34.412158,-59.049588299999996,-58.9695883
458,TUxBQlNBTjE3NDkxOA,San Joaquín,Pilar,TUxBQ1BJTGFyMTIz,Bs.As. G.B.A. Norte,TUxBUEdSQWU4ZDkz,Argentina,-34.464054,-58.895138,-34.504054,-34.424054,-58.935138,-58.855138000000004
459,TUxBQlNBTjg3MDAyMQ,San José de los Talas,Pilar,TUxBQ1BJTGFyMTIz,Bs.As. G.B.A. Norte,TUxBUEdSQWU4ZDkz,Argentina,-34.424328,-58.945724,-34.464328,-34.384328000000004,-58.985724,-58.905724
460,TUxBQlNBTjc2Mjk2MA,San Manuel,Pilar,TUxBQ1BJTGFyMTIz,Bs.As. G.B.A. Norte,TUxBUEdSQWU4ZDkz,Argentina,-34.471542,-58.897408,-34.511542,-34.431542,-58.937408,-58.857408
461,TVhYU2FuIFBhYmxvVFV4QlExQkpUR0Z5TVRJe,San Pablo,Pilar,TUxBQ1BJTGFyMTIz,Bs.As. G.B.A. Norte,TUxBUEdSQWU4ZDkz,Argentina,-34.4646213,-58.8977058,-34.5046213,-34.4246213,-58.937705799999996,-58.8577058
462,TUxBQlNBTjEzMzg2NQ,Santa Maria del Pilar,Pilar,TUxBQ1BJTGFyMTIz,Bs.As. G.B.A. Norte,TUxBUEdSQWU4ZDkz,Argentina,-34.441505,-58.924126,-34.481505,-34.401505,-58.964126,-58.884126
463,TUxBQlNBTjE5NTk5MQ,Santa Rosa,Pilar,TUxBQ1BJTGFyMTIz,Bs.As. G.B.A. Norte,TUxBUEdSQWU4ZDkz,Argentina,-34.419212,-58.871807,-34.459212,-34.379212,-58.911806999999996,-58.831807
464,TUxBQlNBTjIyNDE0NQ,Santa Silvina,Pilar,TUxBQ1BJTGFyMTIz,Bs.As. G.B.A. Norte,TUxBUEdSQWU4ZDkz,Argentina,-34.44136,-58.899586,-34.48136,-34.401360000000004,-58.939586,-58.859586
465,TUxBQlNBTjcyMjla,Santa Teresa,Pilar,TUxBQ1BJTGFyMTIz,Bs.As. G.B.A. Norte,TUxBUEdSQWU4ZDkz,Argentina,-34.46193,-58.776386,-34.50193,-34.42193,-58.816386,-58.736386
466,TVhYU2FudG8gVG9tYXNUVXhCUTFCSlRHRnlNV,Santo Tomas,Pilar,TUxBQ1BJTGFyMTIz,Bs.As. G.B.A. Norte,TUxBUEdSQWU4ZDkz,Argentina,-34.4646213,-58.8977058,-34.5046213,-34.4246213,-58.937705799999996,-58.8577058
467,TVhYU2FyYXZpIFZpbGxhZ2VUVXhCUTFCSlRHR,Saravi Village,Pilar,TUxBQ1BJTGFyMTIz,Bs.As. G.B.A. Norte,TUxBUEdSQWU4ZDkz,Argentina,-34.451819,-58.837707,-34.491819,-34.411819,-58.877707,-58.797707
468,TUxBQlNBVTczNTE0MQ,Sausalito,Pilar,TUxBQ1BJTGFyMTIz,Bs.As. G.B.A. Norte,TUxBUEdSQWU4ZDkz,Argentina,-34.470554,-58.886982,-34.510554,-34.430554,-58.926982,-58.846982000000004
469,TUxBQlNFRzU5MDY2Ng,Segundas Colinas,Pilar,TUxBQ1BJTGFyMTIz,Bs.As. G.B.A. Norte,TUxBUEdSQWU4ZDkz,Argentina,-34.42596,-58.903862,-34.46596,-34.385960000000004,-58.943861999999996,-58.863862
470,TUxBQlNFTjM0NzI0MQ,Senderos 1,Pilar,TUxBQ1BJTGFyMTIz,Bs.As. G.B.A. Norte,TUxBUEdSQWU4ZDkz,Argentina,-34.442245,-58.75051,-34.482245,-34.402245,-58.79051,-58.71051
471,TUxBQlNFTjMxMzc4OA,Senderos 2,Pilar,TUxBQ1BJTGFyMTIz,Bs.As. G.B.A. Norte,TUxBUEdSQWU4ZDkz,Argentina,-34.4432211,-58.7515137,-34.4832211,-34.4032211,-58.791513699999996,-58.7115137
472,TUxBQlNPQzk5MDIyNA,Sociedad Hebraica,Pilar,TUxBQ1BJTGFyMTIz,Bs.As. G.B.A. Norte,TUxBUEdSQWU4ZDkz,Argentina,-34.60587,-58.398495,-34.64587,-34.565870000000004,-58.438494999999996,-58.358495
473,TVhYU29sYXIgQXp1bFRVeEJRMUJKVEdGeU1US,Solar Azul,Pilar,TUxBQ1BJTGFyMTIz,Bs.As. G.B.A. Norte,TUxBUEdSQWU4ZDkz,Argentina,-34.4465395,-58.8438271,-34.4865395,-34.4065395,-58.8838271,-58.8038271
474,TUxBQlNPTDQ4NDA4Mw,Solares del Norte,Pilar,TUxBQ1BJTGFyMTIz,Bs.As. G.B.A. Norte,TUxBUEdSQWU4ZDkz,Argentina,-34.46554,-58.91473,-34.505539999999996,-34.42554,-58.95473,-58.87473
475,TUxBQlNPTDU4NTgxOA,Solares del Pilar,Pilar,TUxBQ1BJTGFyMTIz,Bs.As. G.B.A. Norte,TUxBUEdSQWU4ZDkz,Argentina,-34.46554,-58.91473,-34.505539999999996,-34.42554,-58.95473,-58.87473
476,TUxBQlNPTDQ4NjU0NQ,Soles del Pilar,Pilar,TUxBQ1BJTGFyMTIz,Bs.As. G.B.A. Norte,TUxBUEdSQWU4ZDkz,Argentina,-34.44262,-58.980133,-34.48262,-34.40262,-59.020133,-58.940133
477,TUxBQlNPTjU2Mzc1Mg,Sonnen Landvilla,Pilar,TUxBQ1BJTGFyMTIz,Bs.As. G.B.A. Norte,TUxBUEdSQWU4ZDkz,Argentina,-34.44771,-58.9001397,-34.48771,-34.40771,-58.940139699999996,-58.8601397
478,TUxBQlNQUjQzOTY0OQ,Springdale,Pilar,TUxBQ1BJTGFyMTIz,Bs.As. G.B.A. Norte,TUxBUEdSQWU4ZDkz,Argentina,-34.46784,-58.857597,-34.50784,-34.42784,-58.897597,-58.817597
479,TUxBQlNULjU0NTAzMg,St. Mathews Village,Pilar,TUxBQ1BJTGFyMTIz,Bs.As. G.B.A. Norte,TUxBUEdSQWU4ZDkz,Argentina,-34.56856,-58.454556,-34.60856,-34.52856,-58.494555999999996,-58.414556
480,TUxBQlNUUjg4NDcyMQ,Stradivarius,Pilar,TUxBQ1BJTGFyMTIz,Bs.As. G.B.A. Norte,TUxBUEdSQWU4ZDkz,Argentina,-34.395024,-58.8885517,-34.435024,-34.355024,-58.9285517,-58.8485517
481,TUxBQlRBWDU5MzEzNQ,Taxodium,Pilar,TUxBQ1BJTGFyMTIz,Bs.As. G.B.A. Norte,TUxBUEdSQWU4ZDkz,Argentina,-34.443543,-58.8667547,-34.483543,-34.403543,-58.9067547,-58.8267547
482,TUxBQlRFUjgyNjc5Nw,Terrazas de Morra,Pilar,TUxBQ1BJTGFyMTIz,Bs.As. G.B.A. Norte,TUxBUEdSQWU4ZDkz,Argentina,-34.451504,-58.898064,-34.491504,-34.411504,-58.938064,-58.858064
483,TUxBQlRFUjE2NzM4NA,Terrazas del Haras,Pilar,TUxBQ1BJTGFyMTIz,Bs.As. G.B.A. Norte,TUxBUEdSQWU4ZDkz,Argentina,-34.426495,-58.836674,-34.466495,-34.386495000000004,-58.876674,-58.796674
484,TUxBQlRFUjQyODk4Mg,Terrazas del Lago,Pilar,TUxBQ1BJTGFyMTIz,Bs.As. G.B.A. Norte,TUxBUEdSQWU4ZDkz,Argentina,-34.442715,-58.923405,-34.482715,-34.402715,-58.963405,-58.883405
485,TUxBQlRPUjU4NTcwOA,Tortugas,Pilar,TUxBQ1BJTGFyMTIz,Bs.As. G.B.A. Norte,TUxBUEdSQWU4ZDkz,Argentina,-34.457047,-58.757996,-34.497047,-34.417047000000004,-58.797996,-58.717996
486,TUxBQlRPUjU2NTk2Mw,Tortugas Chico,Pilar,TUxBQ1BJTGFyMTIz,Bs.As. G.B.A. Norte,TUxBUEdSQWU4ZDkz,Argentina,-34.47378,-58.7726,-34.51378,-34.43378,-58.812599999999996,-58.7326
487,TUxBQlRPUjUwMjQ3NA,Tortugas Garden,Pilar,TUxBQ1BJTGFyMTIz,Bs.As. G.B.A. Norte,TUxBUEdSQWU4ZDkz,Argentina,-34.47449,-58.91297,-34.51449,-34.434490000000004,-58.95297,-58.87297
488,TUxBQlVLQTM0NDg5Mg,Uka-Land,Pilar,TUxBQ1BJTGFyMTIz,Bs.As. G.B.A. Norte,TUxBUEdSQWU4ZDkz,Argentina,-34.450848,-58.9190497,-34.490848,-34.410848,-58.9590497,-58.8790497
489,TVhYVmlsYVZlbnRvVFV4QlExQkpUR0Z5TVRJe,VilaVento,Pilar,TUxBQ1BJTGFyMTIz,Bs.As. G.B.A. Norte,TUxBUEdSQWU4ZDkz,Argentina,-34.4646213,-58.8977058,-34.5046213,-34.4246213,-58.937705799999996,-58.8577058
490,TUxBQlZJTDM1NTZa,Villa Astolfi,Pilar,TUxBQ1BJTGFyMTIz,Bs.As. G.B.A. Norte,TUxBUEdSQWU4ZDkz,Argentina,-34.4864698,-58.879747,-34.5264698,-34.4464698,-58.919747,-58.839747
491,TUxBQlZJTDQxOTJa,Villa Rosa,Pilar,TUxBQ1BJTGFyMTIz,Bs.As. G.B.A. Norte,TUxBUEdSQWU4ZDkz,Argentina,-34.4159183,-58.8715073,-34.4559183,-34.3759183,-58.9115073,-58.8315073
492,TUxBQlZJTDQ1OTYyMg,Villa Rosa (Barrio Cerrado),Pilar,TUxBQ1BJTGFyMTIz,Bs.As. G.B.A. Norte,TUxBUEdSQWU4ZDkz,Argentina,-34.43708,-58.877804,-34.47708,-34.39708,-58.917804,-58.837804
493,TVhYVmlsbGEgZGVsIExhZ29UVXhCUTFCSlRHR,Villa del Lago,Pilar,TUxBQ1BJTGFyMTIz,Bs.As. G.B.A. Norte,TUxBUEdSQWU4ZDkz,Argentina,-34.4433456,-58.9231371,-34.4833456,-34.4033456,-58.9631371,-58.8831371
494,TUxBQlZJTDE1Mzg5OA,Village,Pilar,TUxBQ1BJTGFyMTIz,Bs.As. G.B.A. Norte,TUxBUEdSQWU4ZDkz,Argentina,-34.441895,-58.872326,-34.481895,-34.401895,-58.912326,-58.832326
495,TUxBQlZJTDIwMjkyMw,Village Country Club,Pilar,TUxBQ1BJTGFyMTIz,Bs.As. G.B.A. Norte,TUxBUEdSQWU4ZDkz,Argentina,-34.451363,-58.76545,-34.491363,-34.411363,-58.80545,-58.72545
496,TUxBQlZJTDcxNDk0NQ,Village Golf & Tennis,Pilar,TUxBQ1BJTGFyMTIz,Bs.As. G.B.A. Norte,TUxBUEdSQWU4ZDkz,Argentina,-34.451363,-58.76545,-34.491363,-34.411363,-58.80545,-58.72545
497,TUxBQldJTjc0MTQ3OQ,Windsor Park,Pilar,TUxBQ1BJTGFyMTIz,Bs.As. G.B.A. Norte,TUxBUEdSQWU4ZDkz,Argentina,-34.452911,-58.88417,-34.492911,-34.412911,-58.92417,-58.84417
498,TUxBQlhPTDIwMjI4NQ,Xolares,Pilar,TUxBQ1BJTGFyMTIz,Bs.As. G.B.A. Norte,TUxBUEdSQWU4ZDkz,Argentina,-34.45413,-58.915154,-34.49413,-34.41413,-58.955154,-58.875154
499,TUxBQlpFTDIwNjNa,Zelaya,Pilar,TUxBQ1BJTGFyMTIz,Bs.As. G.B.A. Norte,TUxBUEdSQWU4ZDkz,Argentina,-34.3693539,-58.8697406,-34.4093539,-34.3293539,-58.9097406,-58.8297406
500,TUxBQkFMVDE5MzU2Nw,Altos de San Fernando,San Fernando,TUxBQ1NBTjQ0ZWIy,Bs.As. G.B.A. Norte,TUxBUEdSQWU4ZDkz,Argentina,-34.546677,-58.4617,-34.586677,-34.506677,-58.5017,-58.4217
501,TUxBQkJBSDk3NDcxNg,Bahía del Sol,San Fernando,TUxBQ1NBTjQ0ZWIy,Bs.As. G.B.A. Norte,TUxBUEdSQWU4ZDkz,Argentina,-34.44218,-58.542477,-34.48218,-34.40218,-58.582477,-58.502477
502,TUxBQkJBUjgzNDA2NA,Barrancas de Victoria,San Fernando,TUxBQ1NBTjQ0ZWIy,Bs.As. G.B.A. Norte,TUxBUEdSQWU4ZDkz,Argentina,-34.4474219,-58.5386372,-34.4874219,-34.4074219,-58.578637199999996,-58.4986372
503,TUxBQkJBUjQ4ODc5NA,Barrio Parque El Talar,San Fernando,TUxBQ1NBTjQ0ZWIy,Bs.As. G.B.A. Norte,TUxBUEdSQWU4ZDkz,Argentina,-34.469961,-58.657766,-34.509961,-34.429961,-58.697766,-58.617766
504,TUxBQkJVRTQzMzE2Mw,Buen Puerto,San Fernando,TUxBQ1NBTjQ0ZWIy,Bs.As. G.B.A. Norte,TUxBUEdSQWU4ZDkz,Argentina,-34.60707,-58.440136,-34.64707,-34.56707,-58.480136,-58.400136
505,TUxBQkJVRTQ4NjQ1MQ,Buena Vista,San Fernando,TUxBQ1NBTjQ0ZWIy,Bs.As. G.B.A. Norte,TUxBUEdSQWU4ZDkz,Argentina,-34.478943,-58.59369,-34.518943,-34.438943,-58.63369,-58.55369
506,TUxBQkNPTTEwMTMxMw,Complejo Habitacional San Fernando,San Fernando,TUxBQ1NBTjQ0ZWIy,Bs.As. G.B.A. Norte,TUxBUEdSQWU4ZDkz,Argentina,-34.4404056,-58.5519363,-34.4804056,-34.4004056,-58.5919363,-58.5119363
507,TUxBQkRVUDMzMjAzMg,Duplex del Sol,San Fernando,TUxBQ1NBTjQ0ZWIy,Bs.As. G.B.A. Norte,TUxBUEdSQWU4ZDkz,Argentina,-34.444115,-58.53949,-34.484114999999996,-34.404115,-58.57949,-58.49949
508,TUxBQkVMVDEzOTA0NQ,El Trebol,San Fernando,TUxBQ1NBTjQ0ZWIy,Bs.As. G.B.A. Norte,TUxBUEdSQWU4ZDkz,Argentina,-34.44522,-58.5582,-34.48522,-34.40522,-58.5982,-58.5182
509,TUxBQklORjI4MDIyOQ,Infico,San Fernando,TUxBQ1NBTjQ0ZWIy,Bs.As. G.B.A. Norte,TUxBUEdSQWU4ZDkz,Argentina,-34.44662,-58.574738,-34.48662,-34.406620000000004,-58.614738,-58.534738000000004
510,TUxBQkxBQzg1ODExMA,La Chacra,San Fernando,TUxBQ1NBTjQ0ZWIy,Bs.As. G.B.A. Norte,TUxBUEdSQWU4ZDkz,Argentina,-34.462715,-58.55802,-34.502715,-34.422715000000004,-58.59802,-58.51802
511,TUxBQkxBRDQ4MzI1Nw,La Damasía,San Fernando,TUxBQ1NBTjQ0ZWIy,Bs.As. G.B.A. Norte,TUxBUEdSQWU4ZDkz,Argentina,-34.458996,-58.573704,-34.498996,-34.418996,-58.613704,-58.533704
512,TUxBQkxBUzc4NTEwMA,Las Victorias,San Fernando,TUxBQ1NBTjQ0ZWIy,Bs.As. G.B.A. Norte,TUxBUEdSQWU4ZDkz,Argentina,-34.466373,-58.556232,-34.506372999999996,-34.426373,-58.596232,-58.516232
513,TUxBQkxPUzEyMzM1Mw,Los Sauces,San Fernando,TUxBQ1NBTjQ0ZWIy,Bs.As. G.B.A. Norte,TUxBUEdSQWU4ZDkz,Argentina,-34.468994,-58.499382,-34.508994,-34.428994,-58.539381999999996,-58.459382
514,TUxBQk1BUjQxMTIyNA,Marina del Norte,San Fernando,TUxBQ1NBTjQ0ZWIy,Bs.As. G.B.A. Norte,TUxBUEdSQWU4ZDkz,Argentina,-34.437683,-58.53903,-34.477683,-34.397683,-58.579029999999996,-58.49903
515,TUxBQk1BUjk2MjYwMg,Marinas del Sol,San Fernando,TUxBQ1NBTjQ0ZWIy,Bs.As. G.B.A. Norte,TUxBUEdSQWU4ZDkz,Argentina,-34.444115,-58.53949,-34.484114999999996,-34.404115,-58.57949,-58.49949
516,TVhYUGFsbWFyZXMgZGVsIERlbHRhVFV4QlExT,Palmares del Delta,San Fernando,TUxBQ1NBTjQ0ZWIy,Bs.As. G.B.A. Norte,TUxBUEdSQWU4ZDkz,Argentina,-34.1595453,-58.6167997,-34.1995453,-34.1195453,-58.6567997,-58.5767997
517,TUxBQlBVTjk0NTkyNg,Punta Chica,San Fernando,TUxBQ1NBTjQ0ZWIy,Bs.As. G.B.A. Norte,TUxBUEdSQWU4ZDkz,Argentina,-34.4496,-58.524,-34.489599999999996,-34.4096,-58.564,-58.484
518,TUxBQlJJTjI1MTAwMQ,Rincón del Arca,San Fernando,TUxBQ1NBTjQ0ZWIy,Bs.As. G.B.A. Norte,TUxBUEdSQWU4ZDkz,Argentina,-34.44243,-58.540245,-34.48243,-34.40243,-58.580245,-58.500245
519,TUxBQlNBTjM2MTla,San Fernando,San Fernando,TUxBQ1NBTjQ0ZWIy,Bs.As. G.B.A. Norte,TUxBUEdSQWU4ZDkz,Argentina,-34.4430618,-58.5579643,-34.4830618,-34.4030618,-58.5979643,-58.5179643
520,TUxBQlNBTjU5NzIzOQ,Santa Clara,San Fernando,TUxBQ1NBTjQ0ZWIy,Bs.As. G.B.A. Norte,TUxBUEdSQWU4ZDkz,Argentina,-34.46998,-58.50641,-34.50998,-34.42998,-58.54641,-58.46641
521,TUxBQlRSRTY0MzY4OA,Tres Horquetas,San Fernando,TUxBQ1NBTjQ0ZWIy,Bs.As. G.B.A. Norte,TUxBUEdSQWU4ZDkz,Argentina,-34.457546,-58.585743,-34.497546,-34.417546,-58.625743,-58.545743
522,TUxBQlZJQzYxMzJa,Victoria,San Fernando,TUxBQ1NBTjQ0ZWIy,Bs.As. G.B.A. Norte,TUxBUEdSQWU4ZDkz,Argentina,-34.4562893,-58.5466236,-34.4962893,-34.4162893,-58.586623599999996,-58.5066236
523,TUxBQlZJUjgzMTFa,Virreyes,San Fernando,TUxBQ1NBTjQ0ZWIy,Bs.As. G.B.A. Norte,TUxBUEdSQWU4ZDkz,Argentina,-34.4626848,-58.5745615,-34.5026848,-34.4226848,-58.6145615,-58.5345615
524,TUxBQldJTjM1OTM3Mg,Windbells,San Fernando,TUxBQ1NBTjQ0ZWIy,Bs.As. G.B.A. Norte,TUxBUEdSQWU4ZDkz,Argentina,-34.480457,-58.590454,-34.520457,-34.440457,-58.630454,-58.550454
525,TUxBQkFDQTMyNzNa,Acassuso,San Isidro,TUxBQ1NBTjg4ZmJk,Bs.As. G.B.A. Norte,TUxBUEdSQWU4ZDkz,Argentina,-34.4773612,-58.4992702,-34.517361199999996,-34.4373612,-58.5392702,-58.4592702
526,TUxBQkFMVDI3MTUxMQ,Altos de la Horqueta,San Isidro,TUxBQ1NBTjg4ZmJk,Bs.As. G.B.A. Norte,TUxBUEdSQWU4ZDkz,Argentina,-34.488373,-58.574024,-34.528373,-34.448373000000004,-58.614024,-58.534024
527,TUxBQkFMVDc5ODA1Mg,Altos de la Merced,San Isidro,TUxBQ1NBTjg4ZmJk,Bs.As. G.B.A. Norte,TUxBUEdSQWU4ZDkz,Argentina,-34.47184,-58.560402,-34.51184,-34.43184,-58.600402,-58.520402000000004
528,TUxBQkFNQTczMTkyOQ,Amancay (Santa Rita),San Isidro,TUxBQ1NBTjg4ZmJk,Bs.As. G.B.A. Norte,TUxBUEdSQWU4ZDkz,Argentina,-34.4909221,-58.5720765,-34.5309221,-34.4509221,-58.6120765,-58.5320765
529,TUxBQkFSQjEyNTgzMA,Arboris Laslomas,San Isidro,TUxBQ1NBTjg4ZmJk,Bs.As. G.B.A. Norte,TUxBUEdSQWU4ZDkz,Argentina,-34.47651,-58.534145,-34.51651,-34.43651,-58.574145,-58.494145
530,TUxBQkFZUjE5MDk0NQ,Ayres Chico,San Isidro,TUxBQ1NBTjg4ZmJk,Bs.As. G.B.A. Norte,TUxBUEdSQWU4ZDkz,Argentina,-34.480484,-58.586166,-34.520483999999996,-34.440484,-58.626166,-58.546166
531,TUxBQkFZUjU1MzUzMA,Ayres de San Isidro,San Isidro,TUxBQ1NBTjg4ZmJk,Bs.As. G.B.A. Norte,TUxBUEdSQWU4ZDkz,Argentina,-34.46947,-58.51024,-34.50947,-34.42947,-58.55024,-58.470240000000004
532,TUxBQkJBUjE5MjkyMA,Barrancas al Río,San Isidro,TUxBQ1NBTjg4ZmJk,Bs.As. G.B.A. Norte,TUxBUEdSQWU4ZDkz,Argentina,-34.4724238,-58.4932704,-34.5124238,-34.4324238,-58.5332704,-58.4532704
533,TUxBQkJBUjcxNDUwNw,Barrancas de San Isidro,San Isidro,TUxBQ1NBTjg4ZmJk,Bs.As. G.B.A. Norte,TUxBUEdSQWU4ZDkz,Argentina,-34.469017,-58.496937,-34.509017,-34.429017,-58.536937,-58.456937
534,TUxBQkJFQzkyNDYzNA,Beccar Central,San Isidro,TUxBQ1NBTjg4ZmJk,Bs.As. G.B.A. Norte,TUxBUEdSQWU4ZDkz,Argentina,-34.461506,-58.533028,-34.501506,-34.421506,-58.573028,-58.493028
535,TUxBQkJFQzE1ODA1Mg,Beccar Plaza,San Isidro,TUxBQ1NBTjg4ZmJk,Bs.As. G.B.A. Norte,TUxBUEdSQWU4ZDkz,Argentina,-34.46399,-58.529083,-34.50399,-34.42399,-58.569083,-58.489083
536,TUxBQkJPQTc0NTM5MQ,Boating,San Isidro,TUxBQ1NBTjg4ZmJk,Bs.As. G.B.A. Norte,TUxBUEdSQWU4ZDkz,Argentina,-34.45641,-58.5174,-34.49641,-34.41641,-58.5574,-58.4774
537,TUxBQkJPVTg4MzJa,Boulogne Sur Mer,San Isidro,TUxBQ1NBTjg4ZmJk,Bs.As. G.B.A. Norte,TUxBUEdSQWU4ZDkz,Argentina,-34.5012257,-58.5671668,-34.5412257,-34.4612257,-58.6071668,-58.5271668
538,TUxBQkLJQzIzNTRa,Béccar,San Isidro,TUxBQ1NBTjg4ZmJk,Bs.As. G.B.A. Norte,TUxBUEdSQWU4ZDkz,Argentina,-34.4640891,-58.5347609,-34.5040891,-34.4240891,-58.5747609,-58.4947609
539,TUxBQkNBTTMyMTE0Mg,Camino Real,San Isidro,TUxBQ1NBTjg4ZmJk,Bs.As. G.B.A. Norte,TUxBUEdSQWU4ZDkz,Argentina,-34.48698,-58.582317,-34.52698,-34.44698,-58.622317,-58.542317000000004
